[
    {
        "city": "Athens", 
        "lat": "37.9794", 
        "lng": "23.7161", 
        "country": "Greece", 
        "iso2": "GR", 
        "admin_name": "Attik\u00ed", 
        "capital": "primary", 
        "population": "664046", 
        "population_proper": "664046"
    }, 
    {
        "city": "Piraeus", 
        "lat": "37.9500", 
        "lng": "23.7000", 
        "country": "Greece", 
        "iso2": "GR", 
        "admin_name": "Attik\u00ed", 
        "capital": "minor", 
        "population": "466065", 
        "population_proper": "175697"
    }, 
    {
        "city": "Thessalon\u00edki", 
        "lat": "40.6333", 
        "lng": "22.9500", 
        "country": "Greece", 
        "iso2": "GR", 
        "admin_name": "Kentrik\u00ed Makedon\u00eda", 
        "capital": "admin", 
        "population": "315196", 
        "population_proper": "315196"
    }, 
    {
        "city": "P\u00e1tra", 
        "lat": "38.2500", 
        "lng": "21.7333", 
        "country": "Greece", 
        "iso2": "GR", 
        "admin_name": "Dytik\u00ed Ell\u00e1da", 
        "capital": "admin", 
        "population": "167446", 
        "population_proper": "167446"
    }, 
    {
        "city": "L\u00e1risa", 
        "lat": "39.6385", 
        "lng": "22.4131", 
        "country": "Greece", 
        "iso2": "GR", 
        "admin_name": "Thessal\u00eda", 
        "capital": "admin", 
        "population": "144651", 
        "population_proper": "144651"
    }, 
    {
        "city": "Ir\u00e1kleio", 
        "lat": "35.3333", 
        "lng": "25.1333", 
        "country": "Greece", 
        "iso2": "GR", 
        "admin_name": "Kr\u00edti", 
        "capital": "admin", 
        "population": "140730", 
        "population_proper": "140730"
    }, 
    {
        "city": "Perist\u00e9ri", 
        "lat": "38.0167", 
        "lng": "23.6833", 
        "country": "Greece", 
        "iso2": "GR", 
        "admin_name": "Attik\u00ed", 
        "capital": "minor", 
        "population": "139981", 
        "population_proper": "139981"
    }, 
    {
        "city": "Kallith\u00e9a", 
        "lat": "37.9500", 
        "lng": "23.7000", 
        "country": "Greece", 
        "iso2": "GR", 
        "admin_name": "Attik\u00ed", 
        "capital": "minor", 
        "population": "100641", 
        "population_proper": "100641"
    }, 
    {
        "city": "N\u00edkaia", 
        "lat": "37.9667", 
        "lng": "23.6333", 
        "country": "Greece", 
        "iso2": "GR", 
        "admin_name": "Attik\u00ed", 
        "capital": "minor", 
        "population": "89380", 
        "population_proper": "89380"
    }, 
    {
        "city": "Glyf\u00e1da", 
        "lat": "37.8800", 
        "lng": "23.7533", 
        "country": "Greece", 
        "iso2": "GR", 
        "admin_name": "Attik\u00ed", 
        "capital": "minor", 
        "population": "87305", 
        "population_proper": "87305"
    }, 
    {
        "city": "V\u00f3los", 
        "lat": "39.3611", 
        "lng": "22.9425", 
        "country": "Greece", 
        "iso2": "GR", 
        "admin_name": "Thessal\u00eda", 
        "capital": "minor", 
        "population": "86046", 
        "population_proper": "86046"
    }, 
    {
        "city": "Chal\u00e1ndri", 
        "lat": "38.0167", 
        "lng": "23.8000", 
        "country": "Greece", 
        "iso2": "GR", 
        "admin_name": "Attik\u00ed", 
        "capital": "minor", 
        "population": "74192", 
        "population_proper": "74192"
    }, 
    {
        "city": "Kalam\u00e1ta", 
        "lat": "37.0389", 
        "lng": "22.1142", 
        "country": "Greece", 
        "iso2": "GR", 
        "admin_name": "Peloponn\u00edsos", 
        "capital": "minor", 
        "population": "71823", 
        "population_proper": "51108"
    }, 
    {
        "city": "N\u00e9a Ion\u00eda", 
        "lat": "38.0333", 
        "lng": "23.7500", 
        "country": "Greece", 
        "iso2": "GR", 
        "admin_name": "Attik\u00ed", 
        "capital": "minor", 
        "population": "67134", 
        "population_proper": "67134"
    }, 
    {
        "city": "Io\u00e1nnina", 
        "lat": "39.6647", 
        "lng": "20.8519", 
        "country": "Greece", 
        "iso2": "GR", 
        "admin_name": "\u00cdpeiros", 
        "capital": "admin", 
        "population": "65574", 
        "population_proper": "65574"
    }, 
    {
        "city": "Tr\u00edkala", 
        "lat": "39.5500", 
        "lng": "21.7667", 
        "country": "Greece", 
        "iso2": "GR", 
        "admin_name": "Thessal\u00eda", 
        "capital": "minor", 
        "population": "61653", 
        "population_proper": "61653"
    }, 
    {
        "city": "Chalk\u00edda", 
        "lat": "38.4625", 
        "lng": "23.5950", 
        "country": "Greece", 
        "iso2": "GR", 
        "admin_name": "Stere\u00e1 Ell\u00e1da", 
        "capital": "minor", 
        "population": "59125", 
        "population_proper": "59125"
    }, 
    {
        "city": "S\u00e9rres", 
        "lat": "41.0833", 
        "lng": "23.5500", 
        "country": "Greece", 
        "iso2": "GR", 
        "admin_name": "Kentrik\u00ed Makedon\u00eda", 
        "capital": "minor", 
        "population": "58287", 
        "population_proper": "58287"
    }, 
    {
        "city": "Alexandro\u00fapoli", 
        "lat": "40.8500", 
        "lng": "25.8667", 
        "country": "Greece", 
        "iso2": "GR", 
        "admin_name": "Anatolik\u00ed Makedon\u00eda kai Thr\u00e1ki", 
        "capital": "minor", 
        "population": "57812", 
        "population_proper": "57812"
    }, 
    {
        "city": "R\u00f3dos", 
        "lat": "36.4412", 
        "lng": "28.2225", 
        "country": "Greece", 
        "iso2": "GR", 
        "admin_name": "Not\u00edo Aiga\u00edo", 
        "capital": "minor", 
        "population": "56969", 
        "population_proper": "56128"
    }, 
    {
        "city": "X\u00e1nthi", 
        "lat": "41.1333", 
        "lng": "24.8833", 
        "country": "Greece", 
        "iso2": "GR", 
        "admin_name": "Anatolik\u00ed Makedon\u00eda kai Thr\u00e1ki", 
        "capital": "minor", 
        "population": "56122", 
        "population_proper": "56122"
    }, 
    {
        "city": "Kater\u00edni", 
        "lat": "40.2667", 
        "lng": "22.5000", 
        "country": "Greece", 
        "iso2": "GR", 
        "admin_name": "Kentrik\u00ed Makedon\u00eda", 
        "capital": "minor", 
        "population": "55997", 
        "population_proper": "55997"
    }, 
    {
        "city": "Kav\u00e1la", 
        "lat": "40.9396", 
        "lng": "24.4069", 
        "country": "Greece", 
        "iso2": "GR", 
        "admin_name": "Anatolik\u00ed Makedon\u00eda kai Thr\u00e1ki", 
        "capital": "minor", 
        "population": "54027", 
        "population_proper": "54027"
    }, 
    {
        "city": "Chani\u00e1", 
        "lat": "35.5167", 
        "lng": "24.0167", 
        "country": "Greece", 
        "iso2": "GR", 
        "admin_name": "Kr\u00edti", 
        "capital": "minor", 
        "population": "53910", 
        "population_proper": "53910"
    }, 
    {
        "city": "Lam\u00eda", 
        "lat": "38.8972", 
        "lng": "22.4311", 
        "country": "Greece", 
        "iso2": "GR", 
        "admin_name": "Stere\u00e1 Ell\u00e1da", 
        "capital": "admin", 
        "population": "52006", 
        "population_proper": "52006"
    }, 
    {
        "city": "Komotin\u00ed", 
        "lat": "41.1167", 
        "lng": "25.4000", 
        "country": "Greece", 
        "iso2": "GR", 
        "admin_name": "Anatolik\u00ed Makedon\u00eda kai Thr\u00e1ki", 
        "capital": "admin", 
        "population": "50990", 
        "population_proper": "50990"
    }, 
    {
        "city": "Agr\u00ednio", 
        "lat": "38.6167", 
        "lng": "21.4000", 
        "country": "Greece", 
        "iso2": "GR", 
        "admin_name": "Dytik\u00ed Ell\u00e1da", 
        "capital": "minor", 
        "population": "46899", 
        "population_proper": "46899"
    }, 
    {
        "city": "Dr\u00e1ma", 
        "lat": "41.1514", 
        "lng": "24.1392", 
        "country": "Greece", 
        "iso2": "GR", 
        "admin_name": "Anatolik\u00ed Makedon\u00eda kai Thr\u00e1ki", 
        "capital": "minor", 
        "population": "44823", 
        "population_proper": "44823"
    }, 
    {
        "city": "V\u00e9roia", 
        "lat": "40.5203", 
        "lng": "22.2019", 
        "country": "Greece", 
        "iso2": "GR", 
        "admin_name": "Kentrik\u00ed Makedon\u00eda", 
        "capital": "minor", 
        "population": "43158", 
        "population_proper": "43158"
    }, 
    {
        "city": "Koz\u00e1ni", 
        "lat": "40.3007", 
        "lng": "21.7890", 
        "country": "Greece", 
        "iso2": "GR", 
        "admin_name": "Dytik\u00ed Makedon\u00eda", 
        "capital": "admin", 
        "population": "41066", 
        "population_proper": "41066"
    }, 
    {
        "city": "Kard\u00edtsa", 
        "lat": "39.3647", 
        "lng": "21.9219", 
        "country": "Greece", 
        "iso2": "GR", 
        "admin_name": "Thessal\u00eda", 
        "capital": "minor", 
        "population": "38554", 
        "population_proper": "38554"
    }, 
    {
        "city": "R\u00e9thymno", 
        "lat": "35.3667", 
        "lng": "24.4667", 
        "country": "Greece", 
        "iso2": "GR", 
        "admin_name": "Kr\u00edti", 
        "capital": "minor", 
        "population": "32468", 
        "population_proper": "32468"
    }, 
    {
        "city": "Tr\u00edpoli", 
        "lat": "37.5083", 
        "lng": "22.3750", 
        "country": "Greece", 
        "iso2": "GR", 
        "admin_name": "Peloponn\u00edsos", 
        "capital": "admin", 
        "population": "30866", 
        "population_proper": "30866"
    }, 
    {
        "city": "K\u00f3rinthos", 
        "lat": "37.9333", 
        "lng": "22.9333", 
        "country": "Greece", 
        "iso2": "GR", 
        "admin_name": "Peloponn\u00edsos", 
        "capital": "minor", 
        "population": "30176", 
        "population_proper": "30176"
    }, 
    {
        "city": "Giannits\u00e1", 
        "lat": "40.7962", 
        "lng": "22.4145", 
        "country": "Greece", 
        "iso2": "GR", 
        "admin_name": "Kentrik\u00ed Makedon\u00eda", 
        "capital": "minor", 
        "population": "29789", 
        "population_proper": "29789"
    }, 
    {
        "city": "Mytil\u00edni", 
        "lat": "39.1114", 
        "lng": "26.5621", 
        "country": "Greece", 
        "iso2": "GR", 
        "admin_name": "Vore\u00edo Aiga\u00edo", 
        "capital": "admin", 
        "population": "29328", 
        "population_proper": "28322"
    }, 
    {
        "city": "Ch\u00edos", 
        "lat": "38.3725", 
        "lng": "26.1375", 
        "country": "Greece", 
        "iso2": "GR", 
        "admin_name": "Vore\u00edo Aiga\u00edo", 
        "capital": "minor", 
        "population": "26850", 
        "population_proper": "26850"
    }, 
    {
        "city": "N\u00e9a Filad\u00e9lfeia", 
        "lat": "38.0350", 
        "lng": "23.7381", 
        "country": "Greece", 
        "iso2": "GR", 
        "admin_name": "Attik\u00ed", 
        "capital": "minor", 
        "population": "25734", 
        "population_proper": "25734"
    }, 
    {
        "city": "Salam\u00edna", 
        "lat": "37.9333", 
        "lng": "23.5000", 
        "country": "Greece", 
        "iso2": "GR", 
        "admin_name": "Attik\u00ed", 
        "capital": "minor", 
        "population": "25370", 
        "population_proper": "25370"
    }, 
    {
        "city": "Elefs\u00edna", 
        "lat": "38.0414", 
        "lng": "23.5453", 
        "country": "Greece", 
        "iso2": "GR", 
        "admin_name": "Attik\u00ed", 
        "capital": "minor", 
        "population": "24910", 
        "population_proper": "24910"
    }, 
    {
        "city": "K\u00e9rkyra", 
        "lat": "39.6239", 
        "lng": "19.9214", 
        "country": "Greece", 
        "iso2": "GR", 
        "admin_name": "Ion\u00eda N\u00edsia", 
        "capital": "admin", 
        "population": "24838", 
        "population_proper": "24838"
    }, 
    {
        "city": "P\u00fdrgos", 
        "lat": "37.6667", 
        "lng": "21.4333", 
        "country": "Greece", 
        "iso2": "GR", 
        "admin_name": "Dytik\u00ed Ell\u00e1da", 
        "capital": "minor", 
        "population": "24359", 
        "population_proper": "24359"
    }, 
    {
        "city": "M\u00e9gara", 
        "lat": "38.0000", 
        "lng": "23.3333", 
        "country": "Greece", 
        "iso2": "GR", 
        "admin_name": "Attik\u00ed", 
        "capital": "minor", 
        "population": "23456", 
        "population_proper": "23456"
    }, 
    {
        "city": "Kilk\u00eds", 
        "lat": "40.9954", 
        "lng": "22.8765", 
        "country": "Greece", 
        "iso2": "GR", 
        "admin_name": "Kentrik\u00ed Makedon\u00eda", 
        "capital": "minor", 
        "population": "22914", 
        "population_proper": "22914"
    }, 
    {
        "city": "P\u00e9fki", 
        "lat": "38.0667", 
        "lng": "23.8000", 
        "country": "Greece", 
        "iso2": "GR", 
        "admin_name": "Attik\u00ed", 
        "capital": "minor", 
        "population": "21415", 
        "population_proper": "21415"
    }, 
    {
        "city": "Livadei\u00e1", 
        "lat": "38.4333", 
        "lng": "22.8667", 
        "country": "Greece", 
        "iso2": "GR", 
        "admin_name": "Stere\u00e1 Ell\u00e1da", 
        "capital": "minor", 
        "population": "21379", 
        "population_proper": "21379"
    }, 
    {
        "city": "Kos", 
        "lat": "36.8442", 
        "lng": "27.1572", 
        "country": "Greece", 
        "iso2": "GR", 
        "admin_name": "Not\u00edo Aiga\u00edo", 
        "capital": "minor", 
        "population": "19244", 
        "population_proper": "18691"
    }, 
    {
        "city": "Pr\u00e9veza", 
        "lat": "38.9500", 
        "lng": "20.7500", 
        "country": "Greece", 
        "iso2": "GR", 
        "admin_name": "\u00cdpeiros", 
        "capital": "minor", 
        "population": "19042", 
        "population_proper": "19042"
    }, 
    {
        "city": "Oresti\u00e1da", 
        "lat": "41.5000", 
        "lng": "26.5333", 
        "country": "Greece", 
        "iso2": "GR", 
        "admin_name": "Anatolik\u00ed Makedon\u00eda kai Thr\u00e1ki", 
        "capital": "minor", 
        "population": "18426", 
        "population_proper": "18426"
    }, 
    {
        "city": "\u00c9dessa", 
        "lat": "40.8000", 
        "lng": "22.0500", 
        "country": "Greece", 
        "iso2": "GR", 
        "admin_name": "Kentrik\u00ed Makedon\u00eda", 
        "capital": "minor", 
        "population": "18229", 
        "population_proper": "18229"
    }, 
    {
        "city": "Sp\u00e1rti", 
        "lat": "37.0819", 
        "lng": "22.4236", 
        "country": "Greece", 
        "iso2": "GR", 
        "admin_name": "Peloponn\u00edsos", 
        "capital": "minor", 
        "population": "16187", 
        "population_proper": "15497"
    }, 
    {
        "city": "Th\u00e9rmi", 
        "lat": "40.5472", 
        "lng": "23.0197", 
        "country": "Greece", 
        "iso2": "GR", 
        "admin_name": "Kentrik\u00ed Makedon\u00eda", 
        "capital": "minor", 
        "population": "16004", 
        "population_proper": "16004"
    }, 
    {
        "city": "Alex\u00e1ndreia", 
        "lat": "40.6283", 
        "lng": "22.4454", 
        "country": "Greece", 
        "iso2": "GR", 
        "admin_name": "Kentrik\u00ed Makedon\u00eda", 
        "capital": "minor", 
        "population": "14821", 
        "population_proper": "14821"
    }, 
    {
        "city": "Paian\u00eda", 
        "lat": "37.9500", 
        "lng": "23.8500", 
        "country": "Greece", 
        "iso2": "GR", 
        "admin_name": "Attik\u00ed", 
        "capital": "minor", 
        "population": "14595", 
        "population_proper": "14595"
    }, 
    {
        "city": "N\u00e1fplio", 
        "lat": "37.5667", 
        "lng": "22.8000", 
        "country": "Greece", 
        "iso2": "GR", 
        "admin_name": "Peloponn\u00edsos", 
        "capital": "minor", 
        "population": "14203", 
        "population_proper": "14203"
    }, 
    {
        "city": "N\u00e1fpaktos", 
        "lat": "38.3917", 
        "lng": "21.8275", 
        "country": "Greece", 
        "iso2": "GR", 
        "admin_name": "Dytik\u00ed Ell\u00e1da", 
        "capital": "minor", 
        "population": "13415", 
        "population_proper": "13415"
    }, 
    {
        "city": "Kastori\u00e1", 
        "lat": "40.5181", 
        "lng": "21.2688", 
        "country": "Greece", 
        "iso2": "GR", 
        "admin_name": "Dytik\u00ed Makedon\u00eda", 
        "capital": "minor", 
        "population": "13387", 
        "population_proper": "13387"
    }, 
    {
        "city": "K\u00e1lymnos", 
        "lat": "36.9512", 
        "lng": "26.9832", 
        "country": "Greece", 
        "iso2": "GR", 
        "admin_name": "Not\u00edo Aiga\u00edo", 
        "capital": "minor", 
        "population": "12324", 
        "population_proper": "12324"
    }, 
    {
        "city": "Ermo\u00fapoli", 
        "lat": "37.4504", 
        "lng": "24.9333", 
        "country": "Greece", 
        "iso2": "GR", 
        "admin_name": "Not\u00edo Aiga\u00edo", 
        "capital": "admin", 
        "population": "12260", 
        "population_proper": "12260"
    }, 
    {
        "city": "\u00c1gios Nik\u00f3laos", 
        "lat": "35.1892", 
        "lng": "25.7173", 
        "country": "Greece", 
        "iso2": "GR", 
        "admin_name": "Kr\u00edti", 
        "capital": "minor", 
        "population": "11421", 
        "population_proper": "11421"
    }, 
    {
        "city": "T\u00fdrnavos", 
        "lat": "39.7353", 
        "lng": "22.2869", 
        "country": "Greece", 
        "iso2": "GR", 
        "admin_name": "Thessal\u00eda", 
        "capital": "minor", 
        "population": "11069", 
        "population_proper": "11069"
    }, 
    {
        "city": "Diavat\u00e1", 
        "lat": "40.6883", 
        "lng": "22.8583", 
        "country": "Greece", 
        "iso2": "GR", 
        "admin_name": "Kentrik\u00ed Makedon\u00eda", 
        "capital": "", 
        "population": "9890", 
        "population_proper": "9890"
    }, 
    {
        "city": "Ki\u00e1to", 
        "lat": "38.0117", 
        "lng": "22.7467", 
        "country": "Greece", 
        "iso2": "GR", 
        "admin_name": "Peloponn\u00edsos", 
        "capital": "minor", 
        "population": "9812", 
        "population_proper": "9812"
    }, 
    {
        "city": "Anatol\u00ed", 
        "lat": "39.6386", 
        "lng": "20.8661", 
        "country": "Greece", 
        "iso2": "GR", 
        "admin_name": "\u00cdpeiros", 
        "capital": "", 
        "population": "9798", 
        "population_proper": "9798"
    }, 
    {
        "city": "Argost\u00f3li", 
        "lat": "38.1739", 
        "lng": "20.4883", 
        "country": "Greece", 
        "iso2": "GR", 
        "admin_name": "Ion\u00eda N\u00edsia", 
        "capital": "minor", 
        "population": "9748", 
        "population_proper": "9748"
    }, 
    {
        "city": "Lyk\u00f3vrysi", 
        "lat": "38.0667", 
        "lng": "23.7833", 
        "country": "Greece", 
        "iso2": "GR", 
        "admin_name": "Attik\u00ed", 
        "capital": "", 
        "population": "9738", 
        "population_proper": "9738"
    }, 
    {
        "city": "P\u00f3rto R\u00e1fti", 
        "lat": "37.8844", 
        "lng": "24.0125", 
        "country": "Greece", 
        "iso2": "GR", 
        "admin_name": "Attik\u00ed", 
        "capital": "", 
        "population": "9686", 
        "population_proper": "9686"
    }, 
    {
        "city": "N\u00e9a Art\u00e1ki", 
        "lat": "38.5167", 
        "lng": "23.6333", 
        "country": "Greece", 
        "iso2": "GR", 
        "admin_name": "Stere\u00e1 Ell\u00e1da", 
        "capital": "", 
        "population": "9489", 
        "population_proper": "9489"
    }, 
    {
        "city": "Zef\u00fdri", 
        "lat": "38.0667", 
        "lng": "23.7167", 
        "country": "Greece", 
        "iso2": "GR", 
        "admin_name": "Attik\u00ed", 
        "capital": "", 
        "population": "9454", 
        "population_proper": "9454"
    }, 
    {
        "city": "Site\u00eda", 
        "lat": "35.2000", 
        "lng": "26.1000", 
        "country": "Greece", 
        "iso2": "GR", 
        "admin_name": "Kr\u00edti", 
        "capital": "minor", 
        "population": "9348", 
        "population_proper": "9348"
    }, 
    {
        "city": "N\u00e9a Moudani\u00e1", 
        "lat": "40.2386", 
        "lng": "23.2814", 
        "country": "Greece", 
        "iso2": "GR", 
        "admin_name": "Kentrik\u00ed Makedon\u00eda", 
        "capital": "minor", 
        "population": "9342", 
        "population_proper": "9342"
    }, 
    {
        "city": "F\u00e1rsala", 
        "lat": "39.2833", 
        "lng": "22.3833", 
        "country": "Greece", 
        "iso2": "GR", 
        "admin_name": "Thessal\u00eda", 
        "capital": "minor", 
        "population": "9298", 
        "population_proper": "9298"
    }, 
    {
        "city": "S\u00edndos", 
        "lat": "40.6667", 
        "lng": "22.8000", 
        "country": "Greece", 
        "iso2": "GR", 
        "admin_name": "Kentrik\u00ed Makedon\u00eda", 
        "capital": "minor", 
        "population": "9289", 
        "population_proper": "9289"
    }, 
    {
        "city": "Didym\u00f3teicho", 
        "lat": "41.3500", 
        "lng": "26.5000", 
        "country": "Greece", 
        "iso2": "GR", 
        "admin_name": "Anatolik\u00ed Makedon\u00eda kai Thr\u00e1ki", 
        "capital": "minor", 
        "population": "9263", 
        "population_proper": "9263"
    }, 
    {
        "city": "Sp\u00e1ta", 
        "lat": "37.9667", 
        "lng": "23.9167", 
        "country": "Greece", 
        "iso2": "GR", 
        "admin_name": "Attik\u00ed", 
        "capital": "minor", 
        "population": "9198", 
        "population_proper": "9198"
    }, 
    {
        "city": "Epanom\u00ed", 
        "lat": "40.4261", 
        "lng": "22.9281", 
        "country": "Greece", 
        "iso2": "GR", 
        "admin_name": "Kentrik\u00ed Makedon\u00eda", 
        "capital": "", 
        "population": "8979", 
        "population_proper": "8979"
    }, 
    {
        "city": "Chryso\u00fapoli", 
        "lat": "40.9833", 
        "lng": "24.7000", 
        "country": "Greece", 
        "iso2": "GR", 
        "admin_name": "Anatolik\u00ed Makedon\u00eda kai Thr\u00e1ki", 
        "capital": "minor", 
        "population": "8885", 
        "population_proper": "8885"
    }, 
    {
        "city": "N\u00e9a P\u00e9ramos", 
        "lat": "38.0000", 
        "lng": "23.4167", 
        "country": "Greece", 
        "iso2": "GR", 
        "admin_name": "Attik\u00ed", 
        "capital": "", 
        "population": "8333", 
        "population_proper": "8333"
    }, 
    {
        "city": "Kalamp\u00e1ka", 
        "lat": "39.7044", 
        "lng": "21.6269", 
        "country": "Greece", 
        "iso2": "GR", 
        "admin_name": "Thessal\u00eda", 
        "capital": "minor", 
        "population": "8330", 
        "population_proper": "8330"
    }, 
    {
        "city": "Almyr\u00f3s", 
        "lat": "39.1800", 
        "lng": "22.7600", 
        "country": "Greece", 
        "iso2": "GR", 
        "admin_name": "Thessal\u00eda", 
        "capital": "minor", 
        "population": "7955", 
        "population_proper": "7955"
    }, 
    {
        "city": "Kouf\u00e1lia", 
        "lat": "40.7792", 
        "lng": "22.5767", 
        "country": "Greece", 
        "iso2": "GR", 
        "admin_name": "Kentrik\u00ed Makedon\u00eda", 
        "capital": "minor", 
        "population": "7850", 
        "population_proper": "7850"
    }, 
    {
        "city": "Gi\u00e1nnouli", 
        "lat": "39.6672", 
        "lng": "22.3958", 
        "country": "Greece", 
        "iso2": "GR", 
        "admin_name": "Thessal\u00eda", 
        "capital": "", 
        "population": "7847", 
        "population_proper": "7847"
    }, 
    {
        "city": "Lagkad\u00e1s", 
        "lat": "40.7500", 
        "lng": "23.0667", 
        "country": "Greece", 
        "iso2": "GR", 
        "admin_name": "Kentrik\u00ed Makedon\u00eda", 
        "capital": "minor", 
        "population": "7764", 
        "population_proper": "7764"
    }, 
    {
        "city": "Mourni\u00e9s", 
        "lat": "35.4850", 
        "lng": "24.0130", 
        "country": "Greece", 
        "iso2": "GR", 
        "admin_name": "Kr\u00edti", 
        "capital": "", 
        "population": "7553", 
        "population_proper": "7553"
    }, 
    {
        "city": "\u00c1rgos Orestik\u00f3", 
        "lat": "40.4525", 
        "lng": "21.2581", 
        "country": "Greece", 
        "iso2": "GR", 
        "admin_name": "Dytik\u00ed Makedon\u00eda", 
        "capital": "minor", 
        "population": "7473", 
        "population_proper": "7473"
    }, 
    {
        "city": "Elass\u00f3na", 
        "lat": "39.8947", 
        "lng": "22.1886", 
        "country": "Greece", 
        "iso2": "GR", 
        "admin_name": "Thessal\u00eda", 
        "capital": "minor", 
        "population": "7338", 
        "population_proper": "7338"
    }, 
    {
        "city": "Chal\u00e1stra", 
        "lat": "40.6267", 
        "lng": "22.7322", 
        "country": "Greece", 
        "iso2": "GR", 
        "admin_name": "Kentrik\u00ed Makedon\u00eda", 
        "capital": "", 
        "population": "7270", 
        "population_proper": "7270"
    }, 
    {
        "city": "N\u00e9a Kallikr\u00e1teia", 
        "lat": "40.3139", 
        "lng": "23.0633", 
        "country": "Greece", 
        "iso2": "GR", 
        "admin_name": "Kentrik\u00ed Makedon\u00eda", 
        "capital": "", 
        "population": "7238", 
        "population_proper": "7238"
    }, 
    {
        "city": "Karpen\u00edsi", 
        "lat": "38.9203", 
        "lng": "21.7833", 
        "country": "Greece", 
        "iso2": "GR", 
        "admin_name": "Stere\u00e1 Ell\u00e1da", 
        "capital": "minor", 
        "population": "7183", 
        "population_proper": "7183"
    }, 
    {
        "city": "Marath\u00f3nas", 
        "lat": "38.1550", 
        "lng": "23.9636", 
        "country": "Greece", 
        "iso2": "GR", 
        "admin_name": "Attik\u00ed", 
        "capital": "minor", 
        "population": "7170", 
        "population_proper": "7170"
    }, 
    {
        "city": "L\u00e1vrio", 
        "lat": "37.7000", 
        "lng": "24.0500", 
        "country": "Greece", 
        "iso2": "GR", 
        "admin_name": "Attik\u00ed", 
        "capital": "minor", 
        "population": "7078", 
        "population_proper": "7078"
    }, 
    {
        "city": "Pol\u00fdkastro", 
        "lat": "40.9954", 
        "lng": "22.5714", 
        "country": "Greece", 
        "iso2": "GR", 
        "admin_name": "Kentrik\u00ed Makedon\u00eda", 
        "capital": "minor", 
        "population": "7064", 
        "population_proper": "7064"
    }, 
    {
        "city": "Lit\u00f3choro", 
        "lat": "40.1028", 
        "lng": "22.5069", 
        "country": "Greece", 
        "iso2": "GR", 
        "admin_name": "Kentrik\u00ed Makedon\u00eda", 
        "capital": "minor", 
        "population": "6995", 
        "population_proper": "6995"
    }, 
    {
        "city": "\u00c1mfissa", 
        "lat": "38.5253", 
        "lng": "22.3753", 
        "country": "Greece", 
        "iso2": "GR", 
        "admin_name": "Stere\u00e1 Ell\u00e1da", 
        "capital": "minor", 
        "population": "6919", 
        "population_proper": "6919"
    }, 
    {
        "city": "A\u00edgina", 
        "lat": "37.7467", 
        "lng": "23.4275", 
        "country": "Greece", 
        "iso2": "GR", 
        "admin_name": "Attik\u00ed", 
        "capital": "minor", 
        "population": "6867", 
        "population_proper": "6867"
    }, 
    {
        "city": "N\u00e9o Karlov\u00e1si", 
        "lat": "37.7917", 
        "lng": "26.7051", 
        "country": "Greece", 
        "iso2": "GR", 
        "admin_name": "Vore\u00edo Aiga\u00edo", 
        "capital": "", 
        "population": "6708", 
        "population_proper": "6708"
    }, 
    {
        "city": "K\u00e1to Acha\u1e2fa", 
        "lat": "38.1500", 
        "lng": "21.5500", 
        "country": "Greece", 
        "iso2": "GR", 
        "admin_name": "Dytik\u00ed Ell\u00e1da", 
        "capital": "minor", 
        "population": "6618", 
        "population_proper": "6618"
    }, 
    {
        "city": "Arida\u00eda", 
        "lat": "40.9750", 
        "lng": "22.0583", 
        "country": "Greece", 
        "iso2": "GR", 
        "admin_name": "Kentrik\u00ed Makedon\u00eda", 
        "capital": "minor", 
        "population": "6561", 
        "population_proper": "6561"
    }, 
    {
        "city": "\u00c1noixi", 
        "lat": "38.1333", 
        "lng": "23.8667", 
        "country": "Greece", 
        "iso2": "GR", 
        "admin_name": "Attik\u00ed", 
        "capital": "", 
        "population": "6510", 
        "population_proper": "6510"
    }, 
    {
        "city": "So\u00fada", 
        "lat": "35.4833", 
        "lng": "24.0667", 
        "country": "Greece", 
        "iso2": "GR", 
        "admin_name": "Kr\u00edti", 
        "capital": "", 
        "population": "6358", 
        "population_proper": "6358"
    }, 
    {
        "city": "Kounoupidian\u00e1", 
        "lat": "35.5360", 
        "lng": "24.0760", 
        "country": "Greece", 
        "iso2": "GR", 
        "admin_name": "Kr\u00edti", 
        "capital": "", 
        "population": "6334", 
        "population_proper": "6334"
    }, 
    {
        "city": "An\u00e1vyssos", 
        "lat": "37.7333", 
        "lng": "23.9500", 
        "country": "Greece", 
        "iso2": "GR", 
        "admin_name": "Attik\u00ed", 
        "capital": "", 
        "population": "6202", 
        "population_proper": "6202"
    }, 
    {
        "city": "Pol\u00fdgyros", 
        "lat": "40.3783", 
        "lng": "23.4453", 
        "country": "Greece", 
        "iso2": "GR", 
        "admin_name": "Kentrik\u00ed Makedon\u00eda", 
        "capital": "minor", 
        "population": "6121", 
        "population_proper": "6121"
    }, 
    {
        "city": "Mess\u00edni", 
        "lat": "37.0500", 
        "lng": "22.0000", 
        "country": "Greece", 
        "iso2": "GR", 
        "admin_name": "Peloponn\u00edsos", 
        "capital": "minor", 
        "population": "6065", 
        "population_proper": "6065"
    }, 
    {
        "city": "N\u00e9oi Epiv\u00e1tes", 
        "lat": "40.5010", 
        "lng": "22.9090", 
        "country": "Greece", 
        "iso2": "GR", 
        "admin_name": "Kentrik\u00ed Makedon\u00eda", 
        "capital": "", 
        "population": "5984", 
        "population_proper": "5984"
    }, 
    {
        "city": "Filiatr\u00e1", 
        "lat": "37.1572", 
        "lng": "21.5858", 
        "country": "Greece", 
        "iso2": "GR", 
        "admin_name": "Peloponn\u00edsos", 
        "capital": "", 
        "population": "5969", 
        "population_proper": "5969"
    }, 
    {
        "city": "Psachn\u00e1", 
        "lat": "38.5828", 
        "lng": "23.6328", 
        "country": "Greece", 
        "iso2": "GR", 
        "admin_name": "Stere\u00e1 Ell\u00e1da", 
        "capital": "minor", 
        "population": "5827", 
        "population_proper": "5827"
    }, 
    {
        "city": "Megal\u00f3poli", 
        "lat": "37.4000", 
        "lng": "22.1333", 
        "country": "Greece", 
        "iso2": "GR", 
        "admin_name": "Peloponn\u00edsos", 
        "capital": "minor", 
        "population": "5748", 
        "population_proper": "5748"
    }, 
    {
        "city": "M\u00fdrina", 
        "lat": "39.8797", 
        "lng": "25.0742", 
        "country": "Greece", 
        "iso2": "GR", 
        "admin_name": "Vore\u00edo Aiga\u00edo", 
        "capital": "minor", 
        "population": "5711", 
        "population_proper": "5711"
    }, 
    {
        "city": "Di\u00f3nysos", 
        "lat": "38.1000", 
        "lng": "23.8667", 
        "country": "Greece", 
        "iso2": "GR", 
        "admin_name": "Attik\u00ed", 
        "capital": "", 
        "population": "5651", 
        "population_proper": "5651"
    }, 
    {
        "city": "Neroko\u00faros", 
        "lat": "35.4758", 
        "lng": "24.0383", 
        "country": "Greece", 
        "iso2": "GR", 
        "admin_name": "Kr\u00edti", 
        "capital": "", 
        "population": "5531", 
        "population_proper": "5531"
    }, 
    {
        "city": "Xyl\u00f3kastro", 
        "lat": "38.0667", 
        "lng": "22.6333", 
        "country": "Greece", 
        "iso2": "GR", 
        "admin_name": "Peloponn\u00edsos", 
        "capital": "minor", 
        "population": "5500", 
        "population_proper": "5500"
    }, 
    {
        "city": "F\u00edlyro", 
        "lat": "40.6911", 
        "lng": "23.0042", 
        "country": "Greece", 
        "iso2": "GR", 
        "admin_name": "Kentrik\u00ed Makedon\u00eda", 
        "capital": "", 
        "population": "5495", 
        "population_proper": "5495"
    }, 
    {
        "city": "Si\u00e1tista", 
        "lat": "40.2564", 
        "lng": "21.5522", 
        "country": "Greece", 
        "iso2": "GR", 
        "admin_name": "Dytik\u00ed Makedon\u00eda", 
        "capital": "minor", 
        "population": "5490", 
        "population_proper": "5490"
    }, 
    {
        "city": "F\u00e9res", 
        "lat": "40.8933", 
        "lng": "26.1739", 
        "country": "Greece", 
        "iso2": "GR", 
        "admin_name": "Anatolik\u00ed Makedon\u00eda kai Thr\u00e1ki", 
        "capital": "", 
        "population": "5457", 
        "population_proper": "5457"
    }, 
    {
        "city": "Sk\u00fddra", 
        "lat": "40.7667", 
        "lng": "22.1500", 
        "country": "Greece", 
        "iso2": "GR", 
        "admin_name": "Kentrik\u00ed Makedon\u00eda", 
        "capital": "minor", 
        "population": "5406", 
        "population_proper": "5406"
    }, 
    {
        "city": "Arch\u00e1ngelos", 
        "lat": "36.2167", 
        "lng": "28.1167", 
        "country": "Greece", 
        "iso2": "GR", 
        "admin_name": "Not\u00edo Aiga\u00edo", 
        "capital": "", 
        "population": "5384", 
        "population_proper": "5384"
    }, 
    {
        "city": "Kremast\u00ed", 
        "lat": "36.4105", 
        "lng": "28.1191", 
        "country": "Greece", 
        "iso2": "GR", 
        "admin_name": "Not\u00edo Aiga\u00edo", 
        "capital": "", 
        "population": "5363", 
        "population_proper": "5363"
    }, 
    {
        "city": "Vront\u00e1dos", 
        "lat": "38.4167", 
        "lng": "26.1333", 
        "country": "Greece", 
        "iso2": "GR", 
        "admin_name": "Vore\u00edo Aiga\u00edo", 
        "capital": "", 
        "population": "5323", 
        "population_proper": "5323"
    }, 
    {
        "city": "Tymp\u00e1ki", 
        "lat": "35.0719", 
        "lng": "24.7683", 
        "country": "Greece", 
        "iso2": "GR", 
        "admin_name": "Kr\u00edti", 
        "capital": "", 
        "population": "5285", 
        "population_proper": "5285"
    }, 
    {
        "city": "Orchomen\u00f3s", 
        "lat": "38.4933", 
        "lng": "22.9749", 
        "country": "Greece", 
        "iso2": "GR", 
        "admin_name": "Stere\u00e1 Ell\u00e1da", 
        "capital": "minor", 
        "population": "5238", 
        "population_proper": "5238"
    }, 
    {
        "city": "Agri\u00e1", 
        "lat": "39.3400", 
        "lng": "23.0133", 
        "country": "Greece", 
        "iso2": "GR", 
        "admin_name": "Thessal\u00eda", 
        "capital": "", 
        "population": "5191", 
        "population_proper": "5191"
    }, 
    {
        "city": "N\u00e9a Anchi\u00e1los", 
        "lat": "39.2667", 
        "lng": "22.8167", 
        "country": "Greece", 
        "iso2": "GR", 
        "admin_name": "Thessal\u00eda", 
        "capital": "", 
        "population": "5132", 
        "population_proper": "5132"
    }, 
    {
        "city": "Kypariss\u00eda", 
        "lat": "37.2333", 
        "lng": "21.6667", 
        "country": "Greece", 
        "iso2": "GR", 
        "admin_name": "Peloponn\u00edsos", 
        "capital": "minor", 
        "population": "5131", 
        "population_proper": "5131"
    }, 
    {
        "city": "Gargali\u00e1noi", 
        "lat": "37.0667", 
        "lng": "21.6333", 
        "country": "Greece", 
        "iso2": "GR", 
        "admin_name": "Peloponn\u00edsos", 
        "capital": "", 
        "population": "5007", 
        "population_proper": "5007"
    }, 
    {
        "city": "\u00c1gios Athan\u00e1sios", 
        "lat": "40.7161", 
        "lng": "22.7283", 
        "country": "Greece", 
        "iso2": "GR", 
        "admin_name": "Kentrik\u00ed Makedon\u00eda", 
        "capital": "", 
        "population": "4967", 
        "population_proper": "4967"
    }, 
    {
        "city": "Nigr\u00edta", 
        "lat": "40.9133", 
        "lng": "23.5014", 
        "country": "Greece", 
        "iso2": "GR", 
        "admin_name": "Kentrik\u00ed Makedon\u00eda", 
        "capital": "minor", 
        "population": "4947", 
        "population_proper": "4947"
    }, 
    {
        "city": "Ski\u00e1thos", 
        "lat": "39.1652", 
        "lng": "23.4895", 
        "country": "Greece", 
        "iso2": "GR", 
        "admin_name": "Thessal\u00eda", 
        "capital": "minor", 
        "population": "4883", 
        "population_proper": "4883"
    }, 
    {
        "city": "Chorti\u00e1tis", 
        "lat": "40.6083", 
        "lng": "23.1028", 
        "country": "Greece", 
        "iso2": "GR", 
        "admin_name": "Kentrik\u00ed Makedon\u00eda", 
        "capital": "", 
        "population": "4873", 
        "population_proper": "4873"
    }, 
    {
        "city": "Aliv\u00e9ri", 
        "lat": "38.4083", 
        "lng": "24.0417", 
        "country": "Greece", 
        "iso2": "GR", 
        "admin_name": "Stere\u00e1 Ell\u00e1da", 
        "capital": "minor", 
        "population": "4827", 
        "population_proper": "4827"
    }, 
    {
        "city": "T\u00ednos", 
        "lat": "37.5377", 
        "lng": "25.1611", 
        "country": "Greece", 
        "iso2": "GR", 
        "admin_name": "Not\u00edo Aiga\u00edo", 
        "capital": "minor", 
        "population": "4762", 
        "population_proper": "4762"
    }, 
    {
        "city": "Mago\u00fala", 
        "lat": "38.0833", 
        "lng": "23.5167", 
        "country": "Greece", 
        "iso2": "GR", 
        "admin_name": "Attik\u00ed", 
        "capital": "", 
        "population": "4735", 
        "population_proper": "4735"
    }, 
    {
        "city": "Ampel\u00e1kia", 
        "lat": "37.9500", 
        "lng": "23.5167", 
        "country": "Greece", 
        "iso2": "GR", 
        "admin_name": "Attik\u00ed", 
        "capital": "", 
        "population": "4710", 
        "population_proper": "4710"
    }, 
    {
        "city": "V\u00f3nitsa", 
        "lat": "38.9153", 
        "lng": "20.8911", 
        "country": "Greece", 
        "iso2": "GR", 
        "admin_name": "Dytik\u00ed Ell\u00e1da", 
        "capital": "minor", 
        "population": "4703", 
        "population_proper": "4703"
    }, 
    {
        "city": "Filippi\u00e1da", 
        "lat": "39.2028", 
        "lng": "20.8842", 
        "country": "Greece", 
        "iso2": "GR", 
        "admin_name": "\u00cdpeiros", 
        "capital": "minor", 
        "population": "4619", 
        "population_proper": "4619"
    }, 
    {
        "city": "Al\u00edartos", 
        "lat": "38.3667", 
        "lng": "23.1000", 
        "country": "Greece", 
        "iso2": "GR", 
        "admin_name": "Stere\u00e1 Ell\u00e1da", 
        "capital": "minor", 
        "population": "4402", 
        "population_proper": "4402"
    }, 
    {
        "city": "Zevgolati\u00f3", 
        "lat": "37.9333", 
        "lng": "22.8000", 
        "country": "Greece", 
        "iso2": "GR", 
        "admin_name": "Peloponn\u00edsos", 
        "capital": "", 
        "population": "4363", 
        "population_proper": "4363"
    }, 
    {
        "city": "It\u00e9a", 
        "lat": "38.4333", 
        "lng": "22.4333", 
        "country": "Greece", 
        "iso2": "GR", 
        "admin_name": "Stere\u00e1 Ell\u00e1da", 
        "capital": "", 
        "population": "4362", 
        "population_proper": "4362"
    }, 
    {
        "city": "Istia\u00eda", 
        "lat": "38.9500", 
        "lng": "23.1500", 
        "country": "Greece", 
        "iso2": "GR", 
        "admin_name": "Stere\u00e1 Ell\u00e1da", 
        "capital": "minor", 
        "population": "4339", 
        "population_proper": "4339"
    }, 
    {
        "city": "P\u00e1ros", 
        "lat": "37.0850", 
        "lng": "25.1510", 
        "country": "Greece", 
        "iso2": "GR", 
        "admin_name": "Not\u00edo Aiga\u00edo", 
        "capital": "minor", 
        "population": "4326", 
        "population_proper": "4326"
    }, 
    {
        "city": "Arkaloch\u00f3ri", 
        "lat": "35.1500", 
        "lng": "25.2667", 
        "country": "Greece", 
        "iso2": "GR", 
        "admin_name": "Kr\u00edti", 
        "capital": "", 
        "population": "4313", 
        "population_proper": "4313"
    }, 
    {
        "city": "G\u00fdtheio", 
        "lat": "36.7617", 
        "lng": "22.5661", 
        "country": "Greece", 
        "iso2": "GR", 
        "admin_name": "Peloponn\u00edsos", 
        "capital": "minor", 
        "population": "4279", 
        "population_proper": "4279"
    }, 
    {
        "city": "N\u00e9a Magnis\u00eda", 
        "lat": "40.6878", 
        "lng": "22.8458", 
        "country": "Greece", 
        "iso2": "GR", 
        "admin_name": "Kentrik\u00ed Makedon\u00eda", 
        "capital": "", 
        "population": "4266", 
        "population_proper": "4266"
    }, 
    {
        "city": "K\u00edssamos", 
        "lat": "35.4833", 
        "lng": "23.6500", 
        "country": "Greece", 
        "iso2": "GR", 
        "admin_name": "Kr\u00edti", 
        "capital": "minor", 
        "population": "4236", 
        "population_proper": "4236"
    }, 
    {
        "city": "Vouliagm\u00e9ni", 
        "lat": "37.8000", 
        "lng": "23.7833", 
        "country": "Greece", 
        "iso2": "GR", 
        "admin_name": "Attik\u00ed", 
        "capital": "", 
        "population": "4180", 
        "population_proper": "4180"
    }, 
    {
        "city": "Aig\u00ednio", 
        "lat": "40.5022", 
        "lng": "22.5422", 
        "country": "Greece", 
        "iso2": "GR", 
        "admin_name": "Kentrik\u00ed Makedon\u00eda", 
        "capital": "minor", 
        "population": "4153", 
        "population_proper": "4153"
    }, 
    {
        "city": "K\u00edtsi", 
        "lat": "37.8456", 
        "lng": "23.8267", 
        "country": "Greece", 
        "iso2": "GR", 
        "admin_name": "Attik\u00ed", 
        "capital": "", 
        "population": "4091", 
        "population_proper": "4091"
    }, 
    {
        "city": "Schimat\u00e1ri", 
        "lat": "38.3500", 
        "lng": "23.5833", 
        "country": "Greece", 
        "iso2": "GR", 
        "admin_name": "Stere\u00e1 Ell\u00e1da", 
        "capital": "minor", 
        "population": "4035", 
        "population_proper": "4035"
    }, 
    {
        "city": "Aitolik\u00f3", 
        "lat": "38.4369", 
        "lng": "21.3536", 
        "country": "Greece", 
        "iso2": "GR", 
        "admin_name": "Dytik\u00ed Ell\u00e1da", 
        "capital": "", 
        "population": "4012", 
        "population_proper": "4012"
    }, 
    {
        "city": "Kran\u00eddi", 
        "lat": "37.3750", 
        "lng": "23.1583", 
        "country": "Greece", 
        "iso2": "GR", 
        "admin_name": "Peloponn\u00edsos", 
        "capital": "minor", 
        "population": "4006", 
        "population_proper": "4006"
    }, 
    {
        "city": "Sp\u00e9tses", 
        "lat": "37.2591", 
        "lng": "23.1364", 
        "country": "Greece", 
        "iso2": "GR", 
        "admin_name": "Attik\u00ed", 
        "capital": "minor", 
        "population": "4001", 
        "population_proper": "4001"
    }, 
    {
        "city": "Andrav\u00edda", 
        "lat": "37.9058", 
        "lng": "21.2667", 
        "country": "Greece", 
        "iso2": "GR", 
        "admin_name": "Dytik\u00ed Ell\u00e1da", 
        "capital": "", 
        "population": "3981", 
        "population_proper": "3981"
    }, 
    {
        "city": "Katsik\u00e1s", 
        "lat": "39.6228", 
        "lng": "20.8875", 
        "country": "Greece", 
        "iso2": "GR", 
        "admin_name": "\u00cdpeiros", 
        "capital": "", 
        "population": "3885", 
        "population_proper": "3885"
    }, 
    {
        "city": "N\u00e9a Raidest\u00f3s", 
        "lat": "40.5239", 
        "lng": "23.0508", 
        "country": "Greece", 
        "iso2": "GR", 
        "admin_name": "Kentrik\u00ed Makedon\u00eda", 
        "capital": "", 
        "population": "3869", 
        "population_proper": "3869"
    }, 
    {
        "city": "Nem\u00e9a", 
        "lat": "37.8167", 
        "lng": "22.6667", 
        "country": "Greece", 
        "iso2": "GR", 
        "admin_name": "Peloponn\u00edsos", 
        "capital": "minor", 
        "population": "3853", 
        "population_proper": "3853"
    }, 
    {
        "city": "Soufl\u00ed", 
        "lat": "41.1942", 
        "lng": "26.3023", 
        "country": "Greece", 
        "iso2": "GR", 
        "admin_name": "Anatolik\u00ed Makedon\u00eda kai Thr\u00e1ki", 
        "capital": "minor", 
        "population": "3837", 
        "population_proper": "3837"
    }, 
    {
        "city": "Amfiloch\u00eda", 
        "lat": "38.8592", 
        "lng": "21.1758", 
        "country": "Greece", 
        "iso2": "GR", 
        "admin_name": "Dytik\u00ed Ell\u00e1da", 
        "capital": "minor", 
        "population": "3827", 
        "population_proper": "3827"
    }, 
    {
        "city": "M\u00fdkonos", 
        "lat": "37.4453", 
        "lng": "25.3287", 
        "country": "Greece", 
        "iso2": "GR", 
        "admin_name": "Not\u00edo Aiga\u00edo", 
        "capital": "minor", 
        "population": "3783", 
        "population_proper": "3783"
    }, 
    {
        "city": "Vasilik\u00e1", 
        "lat": "40.4800", 
        "lng": "23.1367", 
        "country": "Greece", 
        "iso2": "GR", 
        "admin_name": "Kentrik\u00ed Makedon\u00eda", 
        "capital": "", 
        "population": "3762", 
        "population_proper": "3762"
    }, 
    {
        "city": "Leon\u00eddio", 
        "lat": "37.1667", 
        "lng": "22.8500", 
        "country": "Greece", 
        "iso2": "GR", 
        "admin_name": "Peloponn\u00edsos", 
        "capital": "minor", 
        "population": "3761", 
        "population_proper": "3761"
    }, 
    {
        "city": "Lixo\u00fari", 
        "lat": "38.2000", 
        "lng": "20.4333", 
        "country": "Greece", 
        "iso2": "GR", 
        "admin_name": "Ion\u00eda N\u00edsia", 
        "capital": "", 
        "population": "3752", 
        "population_proper": "3752"
    }, 
    {
        "city": "Leptokary\u00e1", 
        "lat": "40.0603", 
        "lng": "22.5612", 
        "country": "Greece", 
        "iso2": "GR", 
        "admin_name": "Kentrik\u00ed Makedon\u00eda", 
        "capital": "", 
        "population": "3700", 
        "population_proper": "3700"
    }, 
    {
        "city": "Stavr\u00f3s", 
        "lat": "40.6642", 
        "lng": "23.6961", 
        "country": "Greece", 
        "iso2": "GR", 
        "admin_name": "Kentrik\u00ed Makedon\u00eda", 
        "capital": "minor", 
        "population": "3672", 
        "population_proper": "3672"
    }, 
    {
        "city": "Am\u00fdntaio", 
        "lat": "40.6897", 
        "lng": "21.6797", 
        "country": "Greece", 
        "iso2": "GR", 
        "admin_name": "Dytik\u00ed Makedon\u00eda", 
        "capital": "minor", 
        "population": "3671", 
        "population_proper": "3671"
    }, 
    {
        "city": "Kimm\u00e9ria", 
        "lat": "41.1475", 
        "lng": "24.9388", 
        "country": "Greece", 
        "iso2": "GR", 
        "admin_name": "Anatolik\u00ed Makedon\u00eda kai Thr\u00e1ki", 
        "capital": "", 
        "population": "3644", 
        "population_proper": "3644"
    }, 
    {
        "city": "Goum\u00e9nissa", 
        "lat": "40.9481", 
        "lng": "22.4519", 
        "country": "Greece", 
        "iso2": "GR", 
        "admin_name": "Kentrik\u00ed Makedon\u00eda", 
        "capital": "", 
        "population": "3609", 
        "population_proper": "3609"
    }, 
    {
        "city": "Vartholomi\u00f3", 
        "lat": "37.8622", 
        "lng": "21.2058", 
        "country": "Greece", 
        "iso2": "GR", 
        "admin_name": "Dytik\u00ed Ell\u00e1da", 
        "capital": "", 
        "population": "3603", 
        "population_proper": "3603"
    }, 
    {
        "city": "Lagyn\u00e1", 
        "lat": "40.7233", 
        "lng": "23.0050", 
        "country": "Greece", 
        "iso2": "GR", 
        "admin_name": "Kentrik\u00ed Makedon\u00eda", 
        "capital": "", 
        "population": "3591", 
        "population_proper": "3591"
    }, 
    {
        "city": "Prosots\u00e1ni", 
        "lat": "41.1786", 
        "lng": "23.9722", 
        "country": "Greece", 
        "iso2": "GR", 
        "admin_name": "Anatolik\u00ed Makedon\u00eda kai Thr\u00e1ki", 
        "capital": "minor", 
        "population": "3553", 
        "population_proper": "3553"
    }, 
    {
        "city": "N\u00e9a P\u00e9ramos", 
        "lat": "40.8389", 
        "lng": "24.3036", 
        "country": "Greece", 
        "iso2": "GR", 
        "admin_name": "Anatolik\u00ed Makedon\u00eda kai Thr\u00e1ki", 
        "capital": "", 
        "population": "3514", 
        "population_proper": "3514"
    }, 
    {
        "city": "Korin\u00f3s", 
        "lat": "40.3167", 
        "lng": "22.5833", 
        "country": "Greece", 
        "iso2": "GR", 
        "admin_name": "Kentrik\u00ed Makedon\u00eda", 
        "capital": "", 
        "population": "3487", 
        "population_proper": "3487"
    }, 
    {
        "city": "Krin\u00eddes", 
        "lat": "41.0131", 
        "lng": "24.2950", 
        "country": "Greece", 
        "iso2": "GR", 
        "admin_name": "Anatolik\u00ed Makedon\u00eda kai Thr\u00e1ki", 
        "capital": "", 
        "population": "3365", 
        "population_proper": "3365"
    }, 
    {
        "city": "Velvent\u00f3s", 
        "lat": "40.2547", 
        "lng": "22.0742", 
        "country": "Greece", 
        "iso2": "GR", 
        "admin_name": "Dytik\u00ed Makedon\u00eda", 
        "capital": "", 
        "population": "3360", 
        "population_proper": "3360"
    }, 
    {
        "city": "Kapandr\u00edti", 
        "lat": "38.2167", 
        "lng": "23.8833", 
        "country": "Greece", 
        "iso2": "GR", 
        "admin_name": "Attik\u00ed", 
        "capital": "", 
        "population": "3359", 
        "population_proper": "3359"
    }, 
    {
        "city": "S\u00e1pes", 
        "lat": "41.0333", 
        "lng": "25.7000", 
        "country": "Greece", 
        "iso2": "GR", 
        "admin_name": "Anatolik\u00ed Makedon\u00eda kai Thr\u00e1ki", 
        "capital": "minor", 
        "population": "3351", 
        "population_proper": "3351"
    }, 
    {
        "city": "Vrach\u00e1ti", 
        "lat": "37.9500", 
        "lng": "22.8000", 
        "country": "Greece", 
        "iso2": "GR", 
        "admin_name": "Peloponn\u00edsos", 
        "capital": "", 
        "population": "3338", 
        "population_proper": "3338"
    }, 
    {
        "city": "Lit\u00ed", 
        "lat": "40.7447", 
        "lng": "22.9781", 
        "country": "Greece", 
        "iso2": "GR", 
        "admin_name": "Kentrik\u00ed Makedon\u00eda", 
        "capital": "", 
        "population": "3302", 
        "population_proper": "3302"
    }, 
    {
        "city": "Ieriss\u00f3s", 
        "lat": "40.3983", 
        "lng": "23.8783", 
        "country": "Greece", 
        "iso2": "GR", 
        "admin_name": "Kentrik\u00ed Makedon\u00eda", 
        "capital": "minor", 
        "population": "3266", 
        "population_proper": "3266"
    }, 
    {
        "city": "Th\u00e1sos", 
        "lat": "40.7781", 
        "lng": "24.7094", 
        "country": "Greece", 
        "iso2": "GR", 
        "admin_name": "Anatolik\u00ed Makedon\u00eda kai Thr\u00e1ki", 
        "capital": "minor", 
        "population": "3234", 
        "population_proper": "3234"
    }, 
    {
        "city": "M\u00e1lia", 
        "lat": "35.2836", 
        "lng": "25.4625", 
        "country": "Greece", 
        "iso2": "GR", 
        "admin_name": "Kr\u00edti", 
        "capital": "", 
        "population": "3224", 
        "population_proper": "3224"
    }, 
    {
        "city": "N\u00e9os Marmar\u00e1s", 
        "lat": "40.0967", 
        "lng": "23.7831", 
        "country": "Greece", 
        "iso2": "GR", 
        "admin_name": "Kentrik\u00ed Makedon\u00eda", 
        "capital": "", 
        "population": "3158", 
        "population_proper": "3158"
    }, 
    {
        "city": "\u00c1gios Athan\u00e1sios", 
        "lat": "41.0753", 
        "lng": "24.2456", 
        "country": "Greece", 
        "iso2": "GR", 
        "admin_name": "Anatolik\u00ed Makedon\u00eda kai Thr\u00e1ki", 
        "capital": "", 
        "population": "3150", 
        "population_proper": "3150"
    }, 
    {
        "city": "Zach\u00e1ro", 
        "lat": "37.4861", 
        "lng": "21.6494", 
        "country": "Greece", 
        "iso2": "GR", 
        "admin_name": "Dytik\u00ed Ell\u00e1da", 
        "capital": "minor", 
        "population": "3145", 
        "population_proper": "3145"
    }, 
    {
        "city": "Kallith\u00e9a", 
        "lat": "40.2750", 
        "lng": "22.5750", 
        "country": "Greece", 
        "iso2": "GR", 
        "admin_name": "Kentrik\u00ed Makedon\u00eda", 
        "capital": "", 
        "population": "3134", 
        "population_proper": "3134"
    }, 
    {
        "city": "Mel\u00edki", 
        "lat": "40.5167", 
        "lng": "22.4000", 
        "country": "Greece", 
        "iso2": "GR", 
        "admin_name": "Kentrik\u00ed Makedon\u00eda", 
        "capital": "", 
        "population": "3116", 
        "population_proper": "3116"
    }, 
    {
        "city": "Kalamp\u00e1ki", 
        "lat": "41.0500", 
        "lng": "24.1833", 
        "country": "Greece", 
        "iso2": "GR", 
        "admin_name": "Anatolik\u00ed Makedon\u00eda kai Thr\u00e1ki", 
        "capital": "minor", 
        "population": "3110", 
        "population_proper": "3110"
    }, 
    {
        "city": "N\u00e9a Tr\u00edglia", 
        "lat": "40.3061", 
        "lng": "23.2086", 
        "country": "Greece", 
        "iso2": "GR", 
        "admin_name": "Kentrik\u00ed Makedon\u00eda", 
        "capital": "", 
        "population": "3102", 
        "population_proper": "3102"
    }, 
    {
        "city": "Soch\u00f3s", 
        "lat": "40.8164", 
        "lng": "23.3542", 
        "country": "Greece", 
        "iso2": "GR", 
        "admin_name": "Kentrik\u00ed Makedon\u00eda", 
        "capital": "", 
        "population": "3094", 
        "population_proper": "3094"
    }, 
    {
        "city": "Sk\u00e1la", 
        "lat": "36.8525", 
        "lng": "22.6661", 
        "country": "Greece", 
        "iso2": "GR", 
        "admin_name": "Peloponn\u00edsos", 
        "capital": "minor", 
        "population": "3067", 
        "population_proper": "3067"
    }, 
    {
        "city": "Ntr\u00e1fi", 
        "lat": "38.0333", 
        "lng": "23.9000", 
        "country": "Greece", 
        "iso2": "GR", 
        "admin_name": "Attik\u00ed", 
        "capital": "", 
        "population": "3055", 
        "population_proper": "3055"
    }, 
    {
        "city": "Mani\u00e1koi", 
        "lat": "40.5019", 
        "lng": "21.2447", 
        "country": "Greece", 
        "iso2": "GR", 
        "admin_name": "Dytik\u00ed Makedon\u00eda", 
        "capital": "", 
        "population": "3055", 
        "population_proper": "3055"
    }, 
    {
        "city": "N\u00e9a Mesimvr\u00eda", 
        "lat": "40.7517", 
        "lng": "22.7692", 
        "country": "Greece", 
        "iso2": "GR", 
        "admin_name": "Kentrik\u00ed Makedon\u00eda", 
        "capital": "", 
        "population": "3050", 
        "population_proper": "3050"
    }, 
    {
        "city": "Velest\u00edno", 
        "lat": "39.3817", 
        "lng": "22.7450", 
        "country": "Greece", 
        "iso2": "GR", 
        "admin_name": "Thessal\u00eda", 
        "capital": "minor", 
        "population": "3044", 
        "population_proper": "3044"
    }, 
    {
        "city": "Plom\u00e1ri", 
        "lat": "38.9833", 
        "lng": "26.3667", 
        "country": "Greece", 
        "iso2": "GR", 
        "admin_name": "Vore\u00edo Aiga\u00edo", 
        "capital": "", 
        "population": "2996", 
        "population_proper": "2996"
    }, 
    {
        "city": "Orm\u00fdlia", 
        "lat": "40.2944", 
        "lng": "23.5433", 
        "country": "Greece", 
        "iso2": "GR", 
        "admin_name": "Kentrik\u00ed Makedon\u00eda", 
        "capital": "", 
        "population": "2979", 
        "population_proper": "2979"
    }, 
    {
        "city": "N\u00e9o R\u00fdsi", 
        "lat": "40.4961", 
        "lng": "22.9881", 
        "country": "Greece", 
        "iso2": "GR", 
        "admin_name": "Kentrik\u00ed Makedon\u00eda", 
        "capital": "", 
        "population": "2952", 
        "population_proper": "2952"
    }, 
    {
        "city": "K\u00f3nitsa", 
        "lat": "40.0417", 
        "lng": "20.7450", 
        "country": "Greece", 
        "iso2": "GR", 
        "admin_name": "\u00cdpeiros", 
        "capital": "minor", 
        "population": "2942", 
        "population_proper": "2942"
    }, 
    {
        "city": "Lefk\u00edmmi", 
        "lat": "39.4167", 
        "lng": "20.0667", 
        "country": "Greece", 
        "iso2": "GR", 
        "admin_name": "Ion\u00eda N\u00edsia", 
        "capital": "", 
        "population": "2935", 
        "population_proper": "2935"
    }, 
    {
        "city": "Panait\u00f3lio", 
        "lat": "38.5833", 
        "lng": "21.4461", 
        "country": "Greece", 
        "iso2": "GR", 
        "admin_name": "Dytik\u00ed Ell\u00e1da", 
        "capital": "", 
        "population": "2935", 
        "population_proper": "2935"
    }, 
    {
        "city": "Saron\u00edda", 
        "lat": "37.7333", 
        "lng": "23.9000", 
        "country": "Greece", 
        "iso2": "GR", 
        "admin_name": "Attik\u00ed", 
        "capital": "", 
        "population": "2932", 
        "population_proper": "2932"
    }, 
    {
        "city": "Axio\u00fapoli", 
        "lat": "40.9867", 
        "lng": "22.5414", 
        "country": "Greece", 
        "iso2": "GR", 
        "admin_name": "Kentrik\u00ed Makedon\u00eda", 
        "capital": "", 
        "population": "2897", 
        "population_proper": "2897"
    }, 
    {
        "city": "Erythr\u00e9s", 
        "lat": "38.2167", 
        "lng": "23.3167", 
        "country": "Greece", 
        "iso2": "GR", 
        "admin_name": "Attik\u00ed", 
        "capital": "", 
        "population": "2862", 
        "population_proper": "2862"
    }, 
    {
        "city": "Asprov\u00e1lta", 
        "lat": "40.7190", 
        "lng": "23.7095", 
        "country": "Greece", 
        "iso2": "GR", 
        "admin_name": "Kentrik\u00ed Makedon\u00eda", 
        "capital": "", 
        "population": "2838", 
        "population_proper": "2838"
    }, 
    {
        "city": "Katoch\u00ed", 
        "lat": "38.4142", 
        "lng": "21.2542", 
        "country": "Greece", 
        "iso2": "GR", 
        "admin_name": "Dytik\u00ed Ell\u00e1da", 
        "capital": "", 
        "population": "2829", 
        "population_proper": "2829"
    }, 
    {
        "city": "Neoch\u00f3ri", 
        "lat": "38.4083", 
        "lng": "21.2750", 
        "country": "Greece", 
        "iso2": "GR", 
        "admin_name": "Dytik\u00ed Ell\u00e1da", 
        "capital": "", 
        "population": "2827", 
        "population_proper": "2827"
    }, 
    {
        "city": "Kolindr\u00f3s", 
        "lat": "40.4783", 
        "lng": "22.4861", 
        "country": "Greece", 
        "iso2": "GR", 
        "admin_name": "Kentrik\u00ed Makedon\u00eda", 
        "capital": "", 
        "population": "2822", 
        "population_proper": "2822"
    }, 
    {
        "city": "N\u00e9a V\u00fdssa", 
        "lat": "41.5833", 
        "lng": "26.5333", 
        "country": "Greece", 
        "iso2": "GR", 
        "admin_name": "Anatolik\u00ed Makedon\u00eda kai Thr\u00e1ki", 
        "capital": "", 
        "population": "2805", 
        "population_proper": "2805"
    }, 
    {
        "city": "N\u00e9a K\u00edos", 
        "lat": "37.5833", 
        "lng": "22.7333", 
        "country": "Greece", 
        "iso2": "GR", 
        "admin_name": "Peloponn\u00edsos", 
        "capital": "", 
        "population": "2778", 
        "population_proper": "2778"
    }, 
    {
        "city": "Kass\u00e1ndreia", 
        "lat": "40.0467", 
        "lng": "23.4161", 
        "country": "Greece", 
        "iso2": "GR", 
        "admin_name": "Kentrik\u00ed Makedon\u00eda", 
        "capital": "minor", 
        "population": "2775", 
        "population_proper": "2775"
    }, 
    {
        "city": "Kam\u00e9na Vo\u00farla", 
        "lat": "38.7833", 
        "lng": "22.7833", 
        "country": "Greece", 
        "iso2": "GR", 
        "admin_name": "Stere\u00e1 Ell\u00e1da", 
        "capital": "minor", 
        "population": "2761", 
        "population_proper": "2761"
    }, 
    {
        "city": "Chorist\u00ed", 
        "lat": "41.1300", 
        "lng": "24.2083", 
        "country": "Greece", 
        "iso2": "GR", 
        "admin_name": "Anatolik\u00ed Makedon\u00eda kai Thr\u00e1ki", 
        "capital": "", 
        "population": "2725", 
        "population_proper": "2725"
    }, 
    {
        "city": "Palai\u00e1 F\u00f3kaia", 
        "lat": "37.7167", 
        "lng": "23.9500", 
        "country": "Greece", 
        "iso2": "GR", 
        "admin_name": "Attik\u00ed", 
        "capital": "", 
        "population": "2713", 
        "population_proper": "2713"
    }, 
    {
        "city": "N\u00edkiti", 
        "lat": "40.2228", 
        "lng": "23.6686", 
        "country": "Greece", 
        "iso2": "GR", 
        "admin_name": "Kentrik\u00ed Makedon\u00eda", 
        "capital": "minor", 
        "population": "2711", 
        "population_proper": "2711"
    }, 
    {
        "city": "K\u00e1rpathos", 
        "lat": "35.5075", 
        "lng": "27.2136", 
        "country": "Greece", 
        "iso2": "GR", 
        "admin_name": "Not\u00edo Aiga\u00edo", 
        "capital": "minor", 
        "population": "2707", 
        "population_proper": "2707"
    }, 
    {
        "city": "Sperchei\u00e1da", 
        "lat": "38.9167", 
        "lng": "22.1333", 
        "country": "Greece", 
        "iso2": "GR", 
        "admin_name": "Stere\u00e1 Ell\u00e1da", 
        "capital": "minor", 
        "population": "2691", 
        "population_proper": "2691"
    }, 
    {
        "city": "Lechain\u00e1", 
        "lat": "37.9333", 
        "lng": "21.2667", 
        "country": "Greece", 
        "iso2": "GR", 
        "admin_name": "Dytik\u00ed Ell\u00e1da", 
        "capital": "minor", 
        "population": "2641", 
        "population_proper": "2641"
    }, 
    {
        "city": "\u00cdasmos", 
        "lat": "41.1275", 
        "lng": "25.1844", 
        "country": "Greece", 
        "iso2": "GR", 
        "admin_name": "Anatolik\u00ed Makedon\u00eda kai Thr\u00e1ki", 
        "capital": "minor", 
        "population": "2586", 
        "population_proper": "2586"
    }, 
    {
        "city": "Mol\u00e1oi", 
        "lat": "36.8042", 
        "lng": "22.8547", 
        "country": "Greece", 
        "iso2": "GR", 
        "admin_name": "Peloponn\u00edsos", 
        "capital": "minor", 
        "population": "2534", 
        "population_proper": "2534"
    }, 
    {
        "city": "Fili\u00e1tes", 
        "lat": "39.6011", 
        "lng": "20.3119", 
        "country": "Greece", 
        "iso2": "GR", 
        "admin_name": "\u00cdpeiros", 
        "capital": "minor", 
        "population": "2512", 
        "population_proper": "2512"
    }, 
    {
        "city": "M\u00e9tsovo", 
        "lat": "39.7703", 
        "lng": "21.1839", 
        "country": "Greece", 
        "iso2": "GR", 
        "admin_name": "\u00cdpeiros", 
        "capital": "minor", 
        "population": "2503", 
        "population_proper": "2503"
    }, 
    {
        "city": "Ag\u00eda Mar\u00edna", 
        "lat": "37.1568", 
        "lng": "26.8533", 
        "country": "Greece", 
        "iso2": "GR", 
        "admin_name": "Not\u00edo Aiga\u00edo", 
        "capital": "minor", 
        "population": "2372", 
        "population_proper": "2372"
    }, 
    {
        "city": "Paramythi\u00e1", 
        "lat": "39.4667", 
        "lng": "20.5000", 
        "country": "Greece", 
        "iso2": "GR", 
        "admin_name": "\u00cdpeiros", 
        "capital": "minor", 
        "population": "2363", 
        "population_proper": "2363"
    }, 
    {
        "city": "P\u00fdlos", 
        "lat": "36.9000", 
        "lng": "21.6833", 
        "country": "Greece", 
        "iso2": "GR", 
        "admin_name": "Peloponn\u00edsos", 
        "capital": "minor", 
        "population": "2345", 
        "population_proper": "2345"
    }, 
    {
        "city": "\u00c1gios K\u00edrykos", 
        "lat": "37.6114", 
        "lng": "26.2931", 
        "country": "Greece", 
        "iso2": "GR", 
        "admin_name": "Vore\u00edo Aiga\u00edo", 
        "capital": "minor", 
        "population": "2218", 
        "population_proper": "2218"
    }, 
    {
        "city": "Galat\u00e1s", 
        "lat": "37.4967", 
        "lng": "23.4475", 
        "country": "Greece", 
        "iso2": "GR", 
        "admin_name": "Attik\u00ed", 
        "capital": "minor", 
        "population": "2195", 
        "population_proper": "2195"
    }, 
    {
        "city": "K\u00e1to Nevrok\u00f3pi", 
        "lat": "41.3439", 
        "lng": "23.8667", 
        "country": "Greece", 
        "iso2": "GR", 
        "admin_name": "Anatolik\u00ed Makedon\u00eda kai Thr\u00e1ki", 
        "capital": "minor", 
        "population": "2157", 
        "population_proper": "2157"
    }, 
    {
        "city": "Astak\u00f3s", 
        "lat": "38.5333", 
        "lng": "21.0833", 
        "country": "Greece", 
        "iso2": "GR", 
        "admin_name": "Dytik\u00ed Ell\u00e1da", 
        "capital": "minor", 
        "population": "2000", 
        "population_proper": "2000"
    }, 
    {
        "city": "S\u00e1mos", 
        "lat": "37.7475", 
        "lng": "26.9825", 
        "country": "Greece", 
        "iso2": "GR", 
        "admin_name": "Vore\u00edo Aiga\u00edo", 
        "capital": "minor", 
        "population": "1888", 
        "population_proper": "1888"
    }, 
    {
        "city": "Kr\u00e9stena", 
        "lat": "37.5917", 
        "lng": "21.6200", 
        "country": "Greece", 
        "iso2": "GR", 
        "admin_name": "Dytik\u00ed Ell\u00e1da", 
        "capital": "minor", 
        "population": "1864", 
        "population_proper": "1864"
    }, 
    {
        "city": "K\u00e1to Tithor\u00e9a", 
        "lat": "38.6000", 
        "lng": "22.7167", 
        "country": "Greece", 
        "iso2": "GR", 
        "admin_name": "Stere\u00e1 Ell\u00e1da", 
        "capital": "minor", 
        "population": "1841", 
        "population_proper": "1841"
    }, 
    {
        "city": "Th\u00e9rmo", 
        "lat": "38.5736", 
        "lng": "21.6664", 
        "country": "Greece", 
        "iso2": "GR", 
        "admin_name": "Dytik\u00ed Ell\u00e1da", 
        "capital": "minor", 
        "population": "1716", 
        "population_proper": "1716"
    }, 
    {
        "city": "Kal\u00e1vryta", 
        "lat": "38.0308", 
        "lng": "22.1086", 
        "country": "Greece", 
        "iso2": "GR", 
        "admin_name": "Dytik\u00ed Ell\u00e1da", 
        "capital": "minor", 
        "population": "1674", 
        "population_proper": "1674"
    }, 
    {
        "city": "Sk\u00fdros", 
        "lat": "38.9064", 
        "lng": "24.5658", 
        "country": "Greece", 
        "iso2": "GR", 
        "admin_name": "Stere\u00e1 Ell\u00e1da", 
        "capital": "minor", 
        "population": "1657", 
        "population_proper": "1657"
    }, 
    {
        "city": "Fir\u00e1", 
        "lat": "36.4200", 
        "lng": "25.4317", 
        "country": "Greece", 
        "iso2": "GR", 
        "admin_name": "Not\u00edo Aiga\u00edo", 
        "capital": "minor", 
        "population": "1616", 
        "population_proper": "1616"
    }, 
    {
        "city": "D\u00edstomo", 
        "lat": "38.4293", 
        "lng": "22.6673", 
        "country": "Greece", 
        "iso2": "GR", 
        "admin_name": "Stere\u00e1 Ell\u00e1da", 
        "capital": "minor", 
        "population": "1589", 
        "population_proper": "1589"
    }, 
    {
        "city": "Domok\u00f3s", 
        "lat": "39.1000", 
        "lng": "22.3333", 
        "country": "Greece", 
        "iso2": "GR", 
        "admin_name": "Stere\u00e1 Ell\u00e1da", 
        "capital": "minor", 
        "population": "1531", 
        "population_proper": "1531"
    }, 
    {
        "city": "Genis\u00e9a", 
        "lat": "41.0614", 
        "lng": "24.9624", 
        "country": "Greece", 
        "iso2": "GR", 
        "admin_name": "Anatolik\u00ed Makedon\u00eda kai Thr\u00e1ki", 
        "capital": "minor", 
        "population": "1473", 
        "population_proper": "1473"
    }, 
    {
        "city": "Kast\u00e9lli", 
        "lat": "35.2089", 
        "lng": "25.3378", 
        "country": "Greece", 
        "iso2": "GR", 
        "admin_name": "Kr\u00edti", 
        "capital": "minor", 
        "population": "1438", 
        "population_proper": "1438"
    }, 
    {
        "city": "\u00c1ndros", 
        "lat": "37.8333", 
        "lng": "24.9333", 
        "country": "Greece", 
        "iso2": "GR", 
        "admin_name": "Not\u00edo Aiga\u00edo", 
        "capital": "minor", 
        "population": "1428", 
        "population_proper": "1428"
    }, 
    {
        "city": "Chalandr\u00edtsa", 
        "lat": "38.1167", 
        "lng": "21.8000", 
        "country": "Greece", 
        "iso2": "GR", 
        "admin_name": "Dytik\u00ed Ell\u00e1da", 
        "capital": "minor", 
        "population": "913", 
        "population_proper": "913"
    }, 
    {
        "city": "N\u00e9a Sm\u00fdrni", 
        "lat": "37.9454", 
        "lng": "23.7146", 
        "country": "Greece", 
        "iso2": "GR", 
        "admin_name": "Attik\u00ed", 
        "capital": "minor", 
        "population": "", 
        "population_proper": ""
    }, 
    {
        "city": "Ampel\u00f3kipoi", 
        "lat": "40.6540", 
        "lng": "22.9175", 
        "country": "Greece", 
        "iso2": "GR", 
        "admin_name": "Kentrik\u00ed Makedon\u00eda", 
        "capital": "minor", 
        "population": "", 
        "population_proper": ""
    }, 
    {
        "city": "D\u00e1fni", 
        "lat": "37.9501", 
        "lng": "23.7312", 
        "country": "Greece", 
        "iso2": "GR", 
        "admin_name": "Attik\u00ed", 
        "capital": "minor", 
        "population": "", 
        "population_proper": ""
    }, 
    {
        "city": "\u00c1gios Dim\u00edtrios", 
        "lat": "37.9342", 
        "lng": "23.7291", 
        "country": "Greece", 
        "iso2": "GR", 
        "admin_name": "Attik\u00ed", 
        "capital": "minor", 
        "population": "", 
        "population_proper": ""
    }, 
    {
        "city": "Korydall\u00f3s", 
        "lat": "37.9811", 
        "lng": "23.6514", 
        "country": "Greece", 
        "iso2": "GR", 
        "admin_name": "Attik\u00ed", 
        "capital": "minor", 
        "population": "", 
        "population_proper": ""
    }, 
    {
        "city": "Gal\u00e1tsi", 
        "lat": "38.0130", 
        "lng": "23.7533", 
        "country": "Greece", 
        "iso2": "GR", 
        "admin_name": "Attik\u00ed", 
        "capital": "minor", 
        "population": "", 
        "population_proper": ""
    }, 
    {
        "city": "Stavro\u00fapoli", 
        "lat": "40.6692", 
        "lng": "22.9310", 
        "country": "Greece", 
        "iso2": "GR", 
        "admin_name": "Kentrik\u00ed Makedon\u00eda", 
        "capital": "minor", 
        "population": "", 
        "population_proper": ""
    }, 
    {
        "city": "Kalamari\u00e1", 
        "lat": "40.5789", 
        "lng": "22.9485", 
        "country": "Greece", 
        "iso2": "GR", 
        "admin_name": "Kentrik\u00ed Makedon\u00eda", 
        "capital": "minor", 
        "population": "", 
        "population_proper": ""
    }, 
    {
        "city": "Palai\u00f3 F\u00e1liro", 
        "lat": "37.9302", 
        "lng": "23.7026", 
        "country": "Greece", 
        "iso2": "GR", 
        "admin_name": "Attik\u00ed", 
        "capital": "minor", 
        "population": "", 
        "population_proper": ""
    }, 
    {
        "city": "Ag\u00eda Varv\u00e1ra", 
        "lat": "37.9883", 
        "lng": "23.6609", 
        "country": "Greece", 
        "iso2": "GR", 
        "admin_name": "Attik\u00ed", 
        "capital": "minor", 
        "population": "", 
        "population_proper": ""
    }, 
    {
        "city": "Aig\u00e1leo", 
        "lat": "37.9925", 
        "lng": "23.6781", 
        "country": "Greece", 
        "iso2": "GR", 
        "admin_name": "Attik\u00ed", 
        "capital": "minor", 
        "population": "", 
        "population_proper": ""
    }, 
    {
        "city": "Ir\u00e1kleio", 
        "lat": "38.0540", 
        "lng": "23.7745", 
        "country": "Greece", 
        "iso2": "GR", 
        "admin_name": "Attik\u00ed", 
        "capital": "minor", 
        "population": "", 
        "population_proper": ""
    }, 
    {
        "city": "\u00c1gioi An\u00e1rgyroi", 
        "lat": "38.0324", 
        "lng": "23.7247", 
        "country": "Greece", 
        "iso2": "GR", 
        "admin_name": "Attik\u00ed", 
        "capital": "minor", 
        "population": "", 
        "population_proper": ""
    }, 
    {
        "city": "\u00cdlion", 
        "lat": "38.0323", 
        "lng": "23.7022", 
        "country": "Greece", 
        "iso2": "GR", 
        "admin_name": "Attik\u00ed", 
        "capital": "minor", 
        "population": "", 
        "population_proper": ""
    }, 
    {
        "city": "Kerats\u00edni", 
        "lat": "37.9643", 
        "lng": "23.6199", 
        "country": "Greece", 
        "iso2": "GR", 
        "admin_name": "Attik\u00ed", 
        "capital": "minor", 
        "population": "", 
        "population_proper": ""
    }, 
    {
        "city": "Kaisarian\u00ed", 
        "lat": "37.9681", 
        "lng": "23.7595", 
        "country": "Greece", 
        "iso2": "GR", 
        "admin_name": "Attik\u00ed", 
        "capital": "minor", 
        "population": "", 
        "population_proper": ""
    }, 
    {
        "city": "Mosch\u00e1to", 
        "lat": "37.9540", 
        "lng": "23.6815", 
        "country": "Greece", 
        "iso2": "GR", 
        "admin_name": "Attik\u00ed", 
        "capital": "minor", 
        "population": "", 
        "population_proper": ""
    }, 
    {
        "city": "Vril\u00edssia", 
        "lat": "38.0354", 
        "lng": "23.8319", 
        "country": "Greece", 
        "iso2": "GR", 
        "admin_name": "Attik\u00ed", 
        "capital": "minor", 
        "population": "", 
        "population_proper": ""
    }, 
    {
        "city": "Zogr\u00e1fos", 
        "lat": "37.9757", 
        "lng": "23.7691", 
        "country": "Greece", 
        "iso2": "GR", 
        "admin_name": "Attik\u00ed", 
        "capital": "minor", 
        "population": "", 
        "population_proper": ""
    }, 
    {
        "city": "Petro\u00fapoli", 
        "lat": "38.0396", 
        "lng": "23.6812", 
        "country": "Greece", 
        "iso2": "GR", 
        "admin_name": "Attik\u00ed", 
        "capital": "minor", 
        "population": "", 
        "population_proper": ""
    }, 
    {
        "city": "Cholarg\u00f3s", 
        "lat": "38.0010", 
        "lng": "23.8008", 
        "country": "Greece", 
        "iso2": "GR", 
        "admin_name": "Attik\u00ed", 
        "capital": "minor", 
        "population": "", 
        "population_proper": ""
    }, 
    {
        "city": "Syki\u00e9s", 
        "lat": "40.6474", 
        "lng": "22.9563", 
        "country": "Greece", 
        "iso2": "GR", 
        "admin_name": "Kentrik\u00ed Makedon\u00eda", 
        "capital": "minor", 
        "population": "", 
        "population_proper": ""
    }, 
    {
        "city": "\u00c9vosmos", 
        "lat": "40.6698", 
        "lng": "22.9088", 
        "country": "Greece", 
        "iso2": "GR", 
        "admin_name": "Kentrik\u00ed Makedon\u00eda", 
        "capital": "minor", 
        "population": "", 
        "population_proper": ""
    }, 
    {
        "city": "V\u00fdronas", 
        "lat": "37.9596", 
        "lng": "23.7529", 
        "country": "Greece", 
        "iso2": "GR", 
        "admin_name": "Attik\u00ed", 
        "capital": "minor", 
        "population": "", 
        "population_proper": ""
    }, 
    {
        "city": "Ag\u00eda Paraskev\u00ed", 
        "lat": "38.0136", 
        "lng": "23.8255", 
        "country": "Greece", 
        "iso2": "GR", 
        "admin_name": "Attik\u00ed", 
        "capital": "minor", 
        "population": "", 
        "population_proper": ""
    }, 
    {
        "city": "\u00c1limos", 
        "lat": "37.9143", 
        "lng": "23.7159", 
        "country": "Greece", 
        "iso2": "GR", 
        "admin_name": "Attik\u00ed", 
        "capital": "minor", 
        "population": "", 
        "population_proper": ""
    }, 
    {
        "city": "Ilio\u00fapoli", 
        "lat": "37.9302", 
        "lng": "23.7514", 
        "country": "Greece", 
        "iso2": "GR", 
        "admin_name": "Attik\u00ed", 
        "capital": "minor", 
        "population": "", 
        "population_proper": ""
    }, 
    {
        "city": "Mel\u00edssia", 
        "lat": "38.0512", 
        "lng": "23.8362", 
        "country": "Greece", 
        "iso2": "GR", 
        "admin_name": "Attik\u00ed", 
        "capital": "minor", 
        "population": "", 
        "population_proper": ""
    }, 
    {
        "city": "Metam\u00f3rfosi", 
        "lat": "38.0639", 
        "lng": "23.7618", 
        "country": "Greece", 
        "iso2": "GR", 
        "admin_name": "Attik\u00ed", 
        "capital": "minor", 
        "population": "", 
        "population_proper": ""
    }, 
    {
        "city": "Maro\u00fasi", 
        "lat": "38.0537", 
        "lng": "23.8077", 
        "country": "Greece", 
        "iso2": "GR", 
        "admin_name": "Attik\u00ed", 
        "capital": "minor", 
        "population": "", 
        "population_proper": ""
    }, 
    {
        "city": "Argyro\u00fapoli", 
        "lat": "37.9062", 
        "lng": "23.7507", 
        "country": "Greece", 
        "iso2": "GR", 
        "admin_name": "Attik\u00ed", 
        "capital": "minor", 
        "population": "", 
        "population_proper": ""
    }, 
    {
        "city": "G\u00e9rakas", 
        "lat": "38.0133", 
        "lng": "23.8560", 
        "country": "Greece", 
        "iso2": "GR", 
        "admin_name": "Attik\u00ed", 
        "capital": "minor", 
        "population": "", 
        "population_proper": ""
    }, 
    {
        "city": "Psychik\u00f3", 
        "lat": "38.0131", 
        "lng": "23.7723", 
        "country": "Greece", 
        "iso2": "GR", 
        "admin_name": "Attik\u00ed", 
        "capital": "minor", 
        "population": "", 
        "population_proper": ""
    }, 
    {
        "city": "Vo\u00fala", 
        "lat": "37.8459", 
        "lng": "23.7626", 
        "country": "Greece", 
        "iso2": "GR", 
        "admin_name": "Attik\u00ed", 
        "capital": "minor", 
        "population": "", 
        "population_proper": ""
    }, 
    {
        "city": "Pera\u00eda", 
        "lat": "40.4990", 
        "lng": "22.9262", 
        "country": "Greece", 
        "iso2": "GR", 
        "admin_name": "Kentrik\u00ed Makedon\u00eda", 
        "capital": "minor", 
        "population": "", 
        "population_proper": ""
    }, 
    {
        "city": "Cha\u00efd\u00e1ri", 
        "lat": "38.0079", 
        "lng": "23.6597", 
        "country": "Greece", 
        "iso2": "GR", 
        "admin_name": "Attik\u00ed", 
        "capital": "minor", 
        "population": "", 
        "population_proper": ""
    }, 
    {
        "city": "Z\u00e1kynthos", 
        "lat": "37.7802", 
        "lng": "20.8956", 
        "country": "Greece", 
        "iso2": "GR", 
        "admin_name": "Ion\u00eda N\u00edsia", 
        "capital": "minor", 
        "population": "", 
        "population_proper": ""
    }, 
    {
        "city": "Kifisi\u00e1", 
        "lat": "38.0767", 
        "lng": "23.8208", 
        "country": "Greece", 
        "iso2": "GR", 
        "admin_name": "Attik\u00ed", 
        "capital": "minor", 
        "population": "", 
        "population_proper": ""
    }, 
    {
        "city": "P\u00e9rama", 
        "lat": "37.9662", 
        "lng": "23.5739", 
        "country": "Greece", 
        "iso2": "GR", 
        "admin_name": "Attik\u00ed", 
        "capital": "minor", 
        "population": "", 
        "population_proper": ""
    }, 
    {
        "city": "\u00c1gios St\u00e9fanos", 
        "lat": "38.1408", 
        "lng": "23.8591", 
        "country": "Greece", 
        "iso2": "GR", 
        "admin_name": "Attik\u00ed", 
        "capital": "minor", 
        "population": "", 
        "population_proper": ""
    }, 
    {
        "city": "A\u00edgio", 
        "lat": "38.2493", 
        "lng": "22.0848", 
        "country": "Greece", 
        "iso2": "GR", 
        "admin_name": "Dytik\u00ed Ell\u00e1da", 
        "capital": "minor", 
        "population": "", 
        "population_proper": ""
    }, 
    {
        "city": "Orai\u00f3kastro", 
        "lat": "40.7296", 
        "lng": "22.9165", 
        "country": "Greece", 
        "iso2": "GR", 
        "admin_name": "Kentrik\u00ed Makedon\u00eda", 
        "capital": "minor", 
        "population": "", 
        "population_proper": ""
    }, 
    {
        "city": "Lefk\u00e1da", 
        "lat": "38.8304", 
        "lng": "20.7044", 
        "country": "Greece", 
        "iso2": "GR", 
        "admin_name": "Ion\u00eda N\u00edsia", 
        "capital": "minor", 
        "population": "", 
        "population_proper": ""
    }, 
    {
        "city": "Acharn\u00e9s", 
        "lat": "38.0847", 
        "lng": "23.7372", 
        "country": "Greece", 
        "iso2": "GR", 
        "admin_name": "Attik\u00ed", 
        "capital": "minor", 
        "population": "", 
        "population_proper": ""
    }, 
    {
        "city": "\u00c1no Li\u00f3sia", 
        "lat": "38.0840", 
        "lng": "23.7023", 
        "country": "Greece", 
        "iso2": "GR", 
        "admin_name": "Attik\u00ed", 
        "capital": "minor", 
        "population": "", 
        "population_proper": ""
    }, 
    {
        "city": "Pan\u00f3rama", 
        "lat": "40.5853", 
        "lng": "23.0281", 
        "country": "Greece", 
        "iso2": "GR", 
        "admin_name": "Kentrik\u00ed Makedon\u00eda", 
        "capital": "minor", 
        "population": "", 
        "population_proper": ""
    }, 
    {
        "city": "\u00c1rta", 
        "lat": "39.1601", 
        "lng": "20.9856", 
        "country": "Greece", 
        "iso2": "GR", 
        "admin_name": "\u00cdpeiros", 
        "capital": "minor", 
        "population": "", 
        "population_proper": ""
    }, 
    {
        "city": "G\u00e1zi", 
        "lat": "35.3252", 
        "lng": "25.0662", 
        "country": "Greece", 
        "iso2": "GR", 
        "admin_name": "Kr\u00edti", 
        "capital": "minor", 
        "population": "", 
        "population_proper": ""
    }, 
    {
        "city": "Raf\u00edna", 
        "lat": "38.0232", 
        "lng": "24.0026", 
        "country": "Greece", 
        "iso2": "GR", 
        "admin_name": "Attik\u00ed", 
        "capital": "minor", 
        "population": "", 
        "population_proper": ""
    }, 
    {
        "city": "Fl\u00f3rina", 
        "lat": "40.7807", 
        "lng": "21.4093", 
        "country": "Greece", 
        "iso2": "GR", 
        "admin_name": "Dytik\u00ed Makedon\u00eda", 
        "capital": "minor", 
        "population": "", 
        "population_proper": ""
    }, 
    {
        "city": "N\u00e1xos", 
        "lat": "37.1021", 
        "lng": "25.3780", 
        "country": "Greece", 
        "iso2": "GR", 
        "admin_name": "Not\u00edo Aiga\u00edo", 
        "capital": "minor", 
        "population": "", 
        "population_proper": ""
    }, 
    {
        "city": "Ptolema\u1e2fda", 
        "lat": "40.5121", 
        "lng": "21.6780", 
        "country": "Greece", 
        "iso2": "GR", 
        "admin_name": "Dytik\u00ed Makedon\u00eda", 
        "capital": "minor", 
        "population": "", 
        "population_proper": ""
    }, 
    {
        "city": "\u00c1rgos", 
        "lat": "37.6306", 
        "lng": "22.7215", 
        "country": "Greece", 
        "iso2": "GR", 
        "admin_name": "Peloponn\u00edsos", 
        "capital": "minor", 
        "population": "", 
        "population_proper": ""
    }, 
    {
        "city": "Zevgolati\u00f3", 
        "lat": "38.0815", 
        "lng": "22.6193", 
        "country": "Greece", 
        "iso2": "GR", 
        "admin_name": "Peloponn\u00edsos", 
        "capital": "minor", 
        "population": "", 
        "population_proper": ""
    }, 
    {
        "city": "Mo\u00edres", 
        "lat": "35.0517", 
        "lng": "24.8750", 
        "country": "Greece", 
        "iso2": "GR", 
        "admin_name": "Kr\u00edti", 
        "capital": "minor", 
        "population": "", 
        "population_proper": ""
    }, 
    {
        "city": "Pez\u00e1", 
        "lat": "35.2181", 
        "lng": "25.1929", 
        "country": "Greece", 
        "iso2": "GR", 
        "admin_name": "Kr\u00edti", 
        "capital": "minor", 
        "population": "", 
        "population_proper": ""
    }, 
    {
        "city": "P\u00e9rama", 
        "lat": "35.3695", 
        "lng": "24.7039", 
        "country": "Greece", 
        "iso2": "GR", 
        "admin_name": "Kr\u00edti", 
        "capital": "minor", 
        "population": "", 
        "population_proper": ""
    }, 
    {
        "city": "Igoumen\u00edtsa", 
        "lat": "39.5034", 
        "lng": "20.2673", 
        "country": "Greece", 
        "iso2": "GR", 
        "admin_name": "\u00cdpeiros", 
        "capital": "minor", 
        "population": "", 
        "population_proper": ""
    }, 
    {
        "city": "Gasto\u00fani", 
        "lat": "37.8506", 
        "lng": "21.2534", 
        "country": "Greece", 
        "iso2": "GR", 
        "admin_name": "Dytik\u00ed Ell\u00e1da", 
        "capital": "minor", 
        "population": "", 
        "population_proper": ""
    }, 
    {
        "city": "Go\u00farnes", 
        "lat": "35.3248", 
        "lng": "25.2776", 
        "country": "Greece", 
        "iso2": "GR", 
        "admin_name": "Kr\u00edti", 
        "capital": "minor", 
        "population": "", 
        "population_proper": ""
    }, 
    {
        "city": "Eleo\u00fasa", 
        "lat": "39.7059", 
        "lng": "20.7928", 
        "country": "Greece", 
        "iso2": "GR", 
        "admin_name": "\u00cdpeiros", 
        "capital": "minor", 
        "population": "", 
        "population_proper": ""
    }, 
    {
        "city": "Aspr\u00f3pyrgos", 
        "lat": "38.0617", 
        "lng": "23.5894", 
        "country": "Greece", 
        "iso2": "GR", 
        "admin_name": "Attik\u00ed", 
        "capital": "minor", 
        "population": "", 
        "population_proper": ""
    }, 
    {
        "city": "Amali\u00e1da", 
        "lat": "37.7972", 
        "lng": "21.3495", 
        "country": "Greece", 
        "iso2": "GR", 
        "admin_name": "Dytik\u00ed Ell\u00e1da", 
        "capital": "minor", 
        "population": "", 
        "population_proper": ""
    }, 
    {
        "city": "Korop\u00ed", 
        "lat": "37.9009", 
        "lng": "23.8723", 
        "country": "Greece", 
        "iso2": "GR", 
        "admin_name": "Attik\u00ed", 
        "capital": "minor", 
        "population": "", 
        "population_proper": ""
    }, 
    {
        "city": "Ir\u00e1kleia", 
        "lat": "41.1823", 
        "lng": "23.2822", 
        "country": "Greece", 
        "iso2": "GR", 
        "admin_name": "Kentrik\u00ed Makedon\u00eda", 
        "capital": "minor", 
        "population": "", 
        "population_proper": ""
    }, 
    {
        "city": "Kanal\u00e1ki", 
        "lat": "39.2331", 
        "lng": "20.6031", 
        "country": "Greece", 
        "iso2": "GR", 
        "admin_name": "\u00cdpeiros", 
        "capital": "minor", 
        "population": "", 
        "population_proper": ""
    }, 
    {
        "city": "Mark\u00f3poulo", 
        "lat": "37.8833", 
        "lng": "23.9333", 
        "country": "Greece", 
        "iso2": "GR", 
        "admin_name": "Attik\u00ed", 
        "capital": "minor", 
        "population": "", 
        "population_proper": ""
    }, 
    {
        "city": "Archa\u00eda Olymp\u00eda", 
        "lat": "37.6469", 
        "lng": "21.6256", 
        "country": "Greece", 
        "iso2": "GR", 
        "admin_name": "Dytik\u00ed Ell\u00e1da", 
        "capital": "minor", 
        "population": "", 
        "population_proper": ""
    }, 
    {
        "city": "Ier\u00e1petra", 
        "lat": "35.0056", 
        "lng": "25.7333", 
        "country": "Greece", 
        "iso2": "GR", 
        "admin_name": "Kr\u00edti", 
        "capital": "minor", 
        "population": "", 
        "population_proper": ""
    }, 
    {
        "city": "Greven\u00e1", 
        "lat": "40.0840", 
        "lng": "21.4291", 
        "country": "Greece", 
        "iso2": "GR", 
        "admin_name": "Dytik\u00ed Makedon\u00eda", 
        "capital": "minor", 
        "population": "", 
        "population_proper": ""
    }, 
    {
        "city": "Kal\u00fdvia Thoriko\u00fa", 
        "lat": "37.8391", 
        "lng": "23.9276", 
        "country": "Greece", 
        "iso2": "GR", 
        "admin_name": "Attik\u00ed", 
        "capital": "minor", 
        "population": "", 
        "population_proper": ""
    }, 
    {
        "city": "Ger\u00e1ni", 
        "lat": "35.5168", 
        "lng": "23.8780", 
        "country": "Greece", 
        "iso2": "GR", 
        "admin_name": "Kr\u00edti", 
        "capital": "minor", 
        "population": "", 
        "population_proper": ""
    }, 
    {
        "city": "Mouz\u00e1ki", 
        "lat": "39.4288", 
        "lng": "21.6629", 
        "country": "Greece", 
        "iso2": "GR", 
        "admin_name": "Thessal\u00eda", 
        "capital": "minor", 
        "population": "", 
        "population_proper": ""
    }, 
    {
        "city": "Thebes", 
        "lat": "38.3239", 
        "lng": "23.3172", 
        "country": "Greece", 
        "iso2": "GR", 
        "admin_name": "Stere\u00e1 Ell\u00e1da", 
        "capital": "minor", 
        "population": "", 
        "population_proper": ""
    }, 
    {
        "city": "K\u00e1rystos", 
        "lat": "38.0165", 
        "lng": "24.4204", 
        "country": "Greece", 
        "iso2": "GR", 
        "admin_name": "Stere\u00e1 Ell\u00e1da", 
        "capital": "minor", 
        "population": "", 
        "population_proper": ""
    }, 
    {
        "city": "Styl\u00edda", 
        "lat": "38.9144", 
        "lng": "22.6138", 
        "country": "Greece", 
        "iso2": "GR", 
        "admin_name": "Stere\u00e1 Ell\u00e1da", 
        "capital": "minor", 
        "population": "", 
        "population_proper": ""
    }, 
    {
        "city": "Meligal\u00e1s", 
        "lat": "37.2237", 
        "lng": "21.9699", 
        "country": "Greece", 
        "iso2": "GR", 
        "admin_name": "Peloponn\u00edsos", 
        "capital": "minor", 
        "population": "", 
        "population_proper": ""
    }, 
    {
        "city": "Orop\u00f3s", 
        "lat": "38.3017", 
        "lng": "23.7542", 
        "country": "Greece", 
        "iso2": "GR", 
        "admin_name": "Attik\u00ed", 
        "capital": "minor", 
        "population": "", 
        "population_proper": ""
    }, 
    {
        "city": "Agi\u00e1", 
        "lat": "39.7188", 
        "lng": "22.7555", 
        "country": "Greece", 
        "iso2": "GR", 
        "admin_name": "Thessal\u00eda", 
        "capital": "minor", 
        "population": "", 
        "population_proper": ""
    }, 
    {
        "city": "Mesol\u00f3ngi", 
        "lat": "38.3714", 
        "lng": "21.4315", 
        "country": "Greece", 
        "iso2": "GR", 
        "admin_name": "Dytik\u00ed Ell\u00e1da", 
        "capital": "minor", 
        "population": "", 
        "population_proper": ""
    }, 
    {
        "city": "Palam\u00e1s", 
        "lat": "39.4644", 
        "lng": "22.0825", 
        "country": "Greece", 
        "iso2": "GR", 
        "admin_name": "Thessal\u00eda", 
        "capital": "minor", 
        "population": "", 
        "population_proper": ""
    }, 
    {
        "city": "Loutr\u00e1ki", 
        "lat": "37.9750", 
        "lng": "22.9798", 
        "country": "Greece", 
        "iso2": "GR", 
        "admin_name": "Peloponn\u00edsos", 
        "capital": "minor", 
        "population": "", 
        "population_proper": ""
    }, 
    {
        "city": "Er\u00e9tria", 
        "lat": "38.3971", 
        "lng": "23.7902", 
        "country": "Greece", 
        "iso2": "GR", 
        "admin_name": "Stere\u00e1 Ell\u00e1da", 
        "capital": "minor", 
        "population": "", 
        "population_proper": ""
    }, 
    {
        "city": "P\u00e9ta", 
        "lat": "39.1677", 
        "lng": "21.0351", 
        "country": "Greece", 
        "iso2": "GR", 
        "admin_name": "\u00cdpeiros", 
        "capital": "minor", 
        "population": "", 
        "population_proper": ""
    }, 
    {
        "city": "Sof\u00e1des", 
        "lat": "39.3344", 
        "lng": "22.0973", 
        "country": "Greece", 
        "iso2": "GR", 
        "admin_name": "Thessal\u00eda", 
        "capital": "minor", 
        "population": "", 
        "population_proper": ""
    }, 
    {
        "city": "Elefthero\u00fapoli", 
        "lat": "40.9149", 
        "lng": "24.2542", 
        "country": "Greece", 
        "iso2": "GR", 
        "admin_name": "Anatolik\u00ed Makedon\u00eda kai Thr\u00e1ki", 
        "capital": "minor", 
        "population": "", 
        "population_proper": ""
    }, 
    {
        "city": "Fill\u00fdra", 
        "lat": "41.1216", 
        "lng": "25.6324", 
        "country": "Greece", 
        "iso2": "GR", 
        "admin_name": "Anatolik\u00ed Makedon\u00eda kai Thr\u00e1ki", 
        "capital": "minor", 
        "population": "", 
        "population_proper": ""
    }, 
    {
        "city": "N\u00e1ousa", 
        "lat": "40.6300", 
        "lng": "22.0684", 
        "country": "Greece", 
        "iso2": "GR", 
        "admin_name": "Kentrik\u00ed Makedon\u00eda", 
        "capital": "minor", 
        "population": "", 
        "population_proper": ""
    }, 
    {
        "city": "\u00c9vlalo", 
        "lat": "40.9812", 
        "lng": "24.8001", 
        "country": "Greece", 
        "iso2": "GR", 
        "admin_name": "Anatolik\u00ed Makedon\u00eda kai Thr\u00e1ki", 
        "capital": "minor", 
        "population": "", 
        "population_proper": ""
    }, 
    {
        "city": "P\u00fdli", 
        "lat": "39.4596", 
        "lng": "21.6221", 
        "country": "Greece", 
        "iso2": "GR", 
        "admin_name": "Thessal\u00eda", 
        "capital": "minor", 
        "population": "", 
        "population_proper": ""
    }, 
    {
        "city": "G\u00e1ios", 
        "lat": "39.1961", 
        "lng": "20.1858", 
        "country": "Greece", 
        "iso2": "GR", 
        "admin_name": "Ion\u00eda N\u00edsia", 
        "capital": "minor", 
        "population": "", 
        "population_proper": ""
    }, 
    {
        "city": "P\u00f3ros", 
        "lat": "37.5167", 
        "lng": "23.4667", 
        "country": "Greece", 
        "iso2": "GR", 
        "admin_name": "Attik\u00ed", 
        "capital": "minor", 
        "population": "", 
        "population_proper": ""
    }, 
    {
        "city": "Chrys\u00f3", 
        "lat": "41.0584", 
        "lng": "23.6514", 
        "country": "Greece", 
        "iso2": "GR", 
        "admin_name": "Kentrik\u00ed Makedon\u00eda", 
        "capital": "minor", 
        "population": "", 
        "population_proper": ""
    }, 
    {
        "city": "S\u00e9rvia", 
        "lat": "40.1844", 
        "lng": "22.0005", 
        "country": "Greece", 
        "iso2": "GR", 
        "admin_name": "Dytik\u00ed Makedon\u00eda", 
        "capital": "minor", 
        "population": "", 
        "population_proper": ""
    }, 
    {
        "city": "Agk\u00edstri", 
        "lat": "37.7096", 
        "lng": "23.3472", 
        "country": "Greece", 
        "iso2": "GR", 
        "admin_name": "Attik\u00ed", 
        "capital": "minor", 
        "population": "", 
        "population_proper": ""
    }, 
    {
        "city": "Farkad\u00f3na", 
        "lat": "39.5913", 
        "lng": "22.0686", 
        "country": "Greece", 
        "iso2": "GR", 
        "admin_name": "Thessal\u00eda", 
        "capital": "minor", 
        "population": "", 
        "population_proper": ""
    }, 
    {
        "city": "P\u00e1tmos", 
        "lat": "37.3086", 
        "lng": "26.5474", 
        "country": "Greece", 
        "iso2": "GR", 
        "admin_name": "Not\u00edo Aiga\u00edo", 
        "capital": "minor", 
        "population": "", 
        "population_proper": ""
    },